{"features": [{"geometry": {"coordinates": [19.448813, 41.318731], "type": "Point"}, "properties": {"cty": "Albania", "name": "Durres", "port": "ALDRZ", "t": 1.0, "to_cty": ["GR", "ME", "IT", "HR"]}, "type": "Feature"}, {"geometry": {"coordinates": [20.0, 39.883333], "type": "Point"}, "properties": {"cty": "Albania", "name": "Sarande", "port": "ALSAR", "t": null}, "type": "Feature"}, {"geometry": {"coordinates": [19.6, 41.816667], "type": "Point"}, "properties": {"cty": "Albania", "name": "Shengjin", "port": "ALSHG", "t": null}, "type": "Feature"}, {"geometry": {"coordinates": [19.498436, 40.449999], "type": "Point"}, "properties": {"cty": "Albania", "name": "Valona", "port": "ALVLO", "t": null}, "type": "Feature"}, {"geometry": {"coordinates": [19.458615, 40.496912], "type": "Point"}, "properties": {"cty": "Albania", "name": "Vlore", "port": "ALVOA", "t": null}, "type": "Feature"}, {"geometry": {"coordinates": [3.065036, 36.786016], "type": "Point"}, "properties": {"cty": "Algeria", "name": "Alger", "port": "DZALG", "t": 1.0, "to_cty": ["MA", "ES", "DZ", "GR", "TR", "BE"]}, "type": "Feature"}, {"geometry": {"coordinates": [3.063748, 36.781132], "type": "Point"}, "properties": {"cty": "Algeria", "name": "Algeria", "port": "DZDZC", "t": 1.0}, "type": "Feature"}, {"geometry": {"coordinates": [7.770973, 36.908235], "type": "Point"}, "properties": {"cty": "Algeria", "name": "Annaba", "port": "DZAAE", "t": 1.0, "to_cty": ["ES", "IT", "TR", "MT"]}, "type": "Feature"}, {"geometry": {"coordinates": [-0.298252, 35.823253], "type": "Point"}, "properties": {"cty": "Algeria", "name": "Arzew", "port": "DZAZW", "t": null}, "type": "Feature"}, {"geometry": {"coordinates": [5.07628, 36.75], "type": "Point"}, "properties": {"cty": "Algeria", "name": "Bejaia", "port": "DZBJA", "t": 1.0, "to_cty": ["DZ", "ES", "BE", "MA", "TR"]}, "type": "Feature"}, {"geometry": {"coordinates": [-1.23, 35.17], "type": "Point"}, "properties": {"cty": "Algeria", "name": "Benisaf", "port": "DZBEN", "t": null}, "type": "Feature"}, {"geometry": {"coordinates": [-1.383333, 35.3], "type": "Point"}, "properties": {"cty": "Algeria", "name": "Beni Saf", "port": "DZBSF", "t": null}, "type": "Feature"}, {"geometry": {"coordinates": [2.183333, 36.6], "type": "Point"}, "properties": {"cty": "Algeria", "name": "Cherchell", "port": "DZCHE", "t": null}, "type": "Feature"}, {"geometry": {"coordinates": [6.538015, 37.047954], "type": "Point"}, "properties": {"cty": "Algeria", "name": "Collo", "port": "DZCOL", "t": null}, "type": "Feature"}, {"geometry": {"coordinates": [3.916667, 36.916667], "type": "Point"}, "properties": {"cty": "Algeria", "name": "Dellys", "port": "DZDEL", "t": null}, "type": "Feature"}, {"geometry": {"coordinates": [5.883333, 36.816667], "type": "Point"}, "properties": {"cty": "Algeria", "name": "Djen-Djen", "port": "DZDJE", "t": 1.0}, "type": "Feature"}, {"geometry": {"coordinates": [-1.866667, 35.1], "type": "Point"}, "properties": {"cty": "Algeria", "name": "Ghazaouet", "port": "DZGHZ", "t": 1.0, "to_cty": ["FR"]}, "type": "Feature"}, {"geometry": {"coordinates": [5.766167, 36.824538], "type": "Point"}, "properties": {"cty": "Algeria", "name": "Jijel", "port": "DZDJI", "t": null}, "type": "Feature"}, {"geometry": {"coordinates": [0.083333, 35.933333], "type": "Point"}, "properties": {"cty": "Algeria", "name": "Mestghanem", "port": "DZMES", "t": 0.0}, "type": "Feature"}, {"geometry": {"coordinates": [0.064794, 35.916652], "type": "Point"}, "properties": {"cty": "Algeria", "name": "Mostaganem", "port": "DZMOS", "t": null}, "type": "Feature"}, {"geometry": {"coordinates": [-0.65, 35.716667], "type": "Point"}, "properties": {"cty": "Algeria", "name": "Oran", "port": "DZORN", "t": 1.0, "to_cty": ["ES", "BE", "DZ"]}, "type": "Feature"}, {"geometry": {"coordinates": [6.889513, 36.884982], "type": "Point"}, "properties": {"cty": "Algeria", "name": "Skikda", "port": "DZSKI", "t": 1.0, "to_cty": ["DZ", "ES", "TN", "TR"]}, "type": "Feature"}, {"geometry": {"coordinates": [1.331586, 36.517142], "type": "Point"}, "properties": {"cty": "Algeria", "name": "Tenes", "port": "DZTEN", "t": null}, "type": "Feature"}, {"geometry": {"coordinates": [-170.683333, -14.266667], "type": "Point"}, "properties": {"cty": "American_samoa", "name": "Pago Pago", "port": "ASPPG", "t": 1.0, "to_cty": ["VU", "TO", "CN", "TW", "JP", "NZ", "US", "PF", "WF", "FJ", "KR"]}, "type": "Feature"}, {"geometry": {"coordinates": [13.109613, -7.82313], "type": "Point"}, "properties": {"cty": "Angola", "name": "Ambriz", "port": "AOAZZ", "t": null}, "type": "Feature"}, {"geometry": {"coordinates": [12.18745, -5.55615], "type": "Point"}, "properties": {"cty": "Angola", "name": "Cabinda", "port": "AOCAB", "t": 1.0, "to_cty": ["CG"]}, "type": "Feature"}, {"geometry": {"coordinates": [12.323908, -6.209794], "type": "Point"}, "properties": {"cty": "Angola", "name": "Essungo Marine Terminal", "port": "AOSOQ", "t": null}, "type": "Feature"}, {"geometry": {"coordinates": [13.540649, -12.359866], "type": "Point"}, "properties": {"cty": "Angola", "name": "Lobito", "port": "AOLOB", "t": 1.0, "to_cty": ["AO", "CG", "GH", "TG", "NG"]}, "type": "Feature"}, {"geometry": {"coordinates": [13.255005, -8.808175], "type": "Point"}, "properties": {"cty": "Angola", "name": "Luanda", "port": "AOLAD", "t": 1.0, "to_cty": ["GA", "CM", "ZA", "PT", "CD", "TG", "ES", "CN", "BE", "SG", "GQ", "MY", "AO", "BR", "FR", "MA", "CG", "ST"]}, "type": "Feature"}, {"geometry": {"coordinates": [12.140824, -5.244641], "type": "Point"}, "properties": {"cty": "Angola", "name": "Malongo Terminal", "port": "AOMAL", "t": null}, "type": "Feature"}, {"geometry": {"coordinates": [12.116667, -15.183333], "type": "Point"}, "properties": {"cty": "Angola", "name": "Mocamedes", "port": "AOMSZ", "t": null, "to_cty": ["CG", "TG", "ZA", "AO"]}, "type": "Feature"}, {"geometry": {"coordinates": [12.674658, -6.783969], "type": "Point"}, "properties": {"cty": "Angola", "name": "Palanca Terminal", "port": "AOPAT", "t": null}, "type": "Feature"}, {"geometry": {"coordinates": [13.75, -10.733333], "type": "Point"}, "properties": {"cty": "Angola", "name": "Porto Amboim", "port": "AOPBN", "t": 0.0}, "type": "Feature"}, {"geometry": {"coordinates": [12.291074, -6.105743], "type": "Point"}, "properties": {"cty": "Angola", "name": "Soyo", "port": "AOSZA", "t": 0.0, "to_cty": ["CG", "CD"]}, "type": "Feature"}, {"geometry": {"coordinates": [13.8402, -11.2], "type": "Point"}, "properties": {"cty": "Angola", "name": "Sumbe", "port": "AONDD", "t": null}, "type": "Feature"}, {"geometry": {"coordinates": [12.016793, -5.032697], "type": "Point"}, "properties": {"cty": "Angola", "name": "Takula Terminal", "port": "AOTAK", "t": null}, "type": "Feature"}, {"geometry": {"coordinates": [-61.866667, 17.116667], "type": "Point"}, "properties": {"cty": "Antigua_and_barbuda", "name": "St. Johns", "port": "AGSJS", "t": 1.0}, "type": "Feature"}, {"geometry": {"coordinates": [-59.239043, -33.954861], "type": "Point"}, "properties": {"cty": "Argentina", "name": "Atucha", "port": "ARATU", "t": null}, "type": "Feature"}, {"geometry": {"coordinates": [-62.266667, -38.783333], "type": "Point"}, "properties": {"cty": "Argentina", "name": "Bahia Blanca", "port": "ARBHI", "t": 1.0, "to_cty": ["UY", "AR"]}, "type": "Feature"}, {"geometry": {"coordinates": [-58.366664, -34.594638], "type": "Point"}, "properties": {"cty": "Argentina", "name": "Buenos Aires", "port": "ARBUE", "t": 1.0, "to_cty": ["BR", "BS", "CN", "MX", "UY", "DE", "US", "CO", "NL", "PY", "GB", "HK", "BE", "SG", "PA", "MA", "KR", "DO", "ZA", "ES", "PT", "AR", "FR"]}, "type": "Feature"}, {"geometry": {"coordinates": [-58.958425, -34.157954], "type": "Point"}, "properties": {"cty": "Argentina", "name": "Campana", "port": "ARCMP", "t": null}, "type": "Feature"}, {"geometry": {"coordinates": [-67.493757, -45.827038], "type": "Point"}, "properties": {"cty": "Argentina", "name": "Comodoro Rivadacomod", "port": "ARCOR", "t": null}, "type": "Feature"}, {"geometry": {"coordinates": [-58.249998, -32.5], "type": "Point"}, "properties": {"cty": "Argentina", "name": "Concepcion", "port": "ARCON", "t": null}, "type": "Feature"}, {"geometry": {"coordinates": [-65.886108, -47.773772], "type": "Point"}, "properties": {"cty": "Argentina", "name": "Deseado", "port": "ARPUD", "t": 0.0, "to_cty": ["UY"]}, "type": "Feature"}, {"geometry": {"coordinates": [-60.650625, -32.068186], "type": "Point"}, "properties": {"cty": "Argentina", "name": "Diamante", "port": "ARDME", "t": null}, "type": "Feature"}, {"geometry": {"coordinates": [-57.949811, -34.837841], "type": "Point"}, "properties": {"cty": "Argentina", "name": "Ensenada", "port": "ARENS", "t": 0.0}, "type": "Feature"}, {"geometry": {"coordinates": [-59.24588, -33.645426], "type": "Point"}, "properties": {"cty": "Argentina", "name": "Ibicuy", "port": "ARIBY", "t": null}, "type": "Feature"}, {"geometry": {"coordinates": [-57.883333, -34.833333], "type": "Point"}, "properties": {"cty": "Argentina", "name": "La Plata", "port": "ARLPG", "t": 0.0, "to_cty": ["BR"]}, "type": "Feature"}, {"geometry": {"coordinates": [-57.533333, -38.033333], "type": "Point"}, "properties": {"cty": "Argentina", "name": "Mar del Plata", "port": "ARMDQ", "t": 1.0}, "type": "Feature"}, {"geometry": {"coordinates": [-65.857545, -47.749583], "type": "Point"}, "properties": {"cty": "Argentina", "name": "Puerto Deseado", "port": "ARPUD", "t": 1.0, "to_cty": ["UY"]}, "type": "Feature"}, {"geometry": {"coordinates": [-65.055544, -42.74343], "type": "Point"}, "properties": {"cty": "Argentina", "name": "Puerto Madryn", "port": "ARPMY", "t": 1.0, "to_cty": ["UY"]}, "type": "Feature"}, {"geometry": {"coordinates": [-60.53471, -31.722506], "type": "Point"}, "properties": {"cty": "Argentina", "name": "Puerto Parana", "port": "ARPRA", "t": null}, "type": "Feature"}, {"geometry": {"coordinates": [-65.038455, -41.683593], "type": "Point"}, "properties": {"cty": "Argentina", "name": "Punta Colorada", "port": "ARPCO", "t": null}, "type": "Feature"}, {"geometry": {"coordinates": [-69.033145, -51.54879], "type": "Point"}, "properties": {"cty": "Argentina", "name": "Punta Loyola", "port": "ARPLO", "t": null}, "type": "Feature"}, {"geometry": {"coordinates": [-58.728214, -38.57252], "type": "Point"}, "properties": {"cty": "Argentina", "name": "Quequen", "port": "ARQQN", "t": null}, "type": "Feature"}, {"geometry": {"coordinates": [-59.998629, -33.480245], "type": "Point"}, "properties": {"cty": "Argentina", "name": "Ramallo", "port": "ARRAM", "t": null}, "type": "Feature"}, {"geometry": {"coordinates": [-68.999623, -51.637128], "type": "Point"}, "properties": {"cty": "Argentina", "name": "Rio Gallegos", "port": "ARRGL", "t": null}, "type": "Feature"}, {"geometry": {"coordinates": [-67.75, -53.8], "type": "Point"}, "properties": {"cty": "Argentina", "name": "Rio Grande", "port": "ARRGA", "t": 0.0}, "type": "Feature"}, {"geometry": {"coordinates": [-60.628052, -32.962936], "type": "Point"}, "properties": {"cty": "Argentina", "name": "Rosario", "port": "ARROS", "t": 1.0, "to_cty": ["UY", "AR", "BR"]}, "type": "Feature"}, {"geometry": {"coordinates": [-64.856054, -40.816667], "type": "Point"}, "properties": {"cty": "Argentina", "name": "San Antonio Este", "port": "ARSAE", "t": 0.0}, "type": "Feature"}, {"geometry": {"coordinates": [-67.716667, -49.3], "type": "Point"}, "properties": {"cty": "Argentina", "name": "San Julian", "port": "ARULA", "t": null}, "type": "Feature"}, {"geometry": {"coordinates": [-60.732422, -32.718615], "type": "Point"}, "properties": {"cty": "Argentina", "name": "San Lorenzo", "port": "ARSLO", "t": 0.0}, "type": "Feature"}, {"geometry": {"coordinates": [-60.200003, -32.366668], "type": "Point"}, "properties": {"cty": "Argentina", "name": "San Nicolas", "port": "ARSNS", "t": null}, "type": "Feature"}, {"geometry": {"coordinates": [-68.349997, -53.333071], "type": "Point"}, "properties": {"cty": "Argentina", "name": "San Sebastian Bay", "port": "ARSSB", "t": null}, "type": "Feature"}, {"geometry": {"coordinates": [-68.416667, -50.016667], "type": "Point"}, "properties": {"cty": "Argentina", "name": "Santa Cruz", "port": "ARRZA", "t": null}, "type": "Feature"}, {"geometry": {"coordinates": [-58.510986, -34.465852], "type": "Point"}, "properties": {"cty": "Argentina", "name": "Santa Fe", "port": "ARSFN", "t": 1.0}, "type": "Feature"}, {"geometry": {"coordinates": [-68.294508, -54.788171], "type": "Point"}, "properties": {"cty": "Argentina", "name": "Ushuaia", "port": "ARUSH", "t": 1.0, "to_cty": ["AR"]}, "type": "Feature"}, {"geometry": {"coordinates": [-60.3196, -33.23053], "type": "Point"}, "properties": {"cty": "Argentina", "name": "Villa Constitucvilla", "port": "ARVCO", "t": null}, "type": "Feature"}, {"geometry": {"coordinates": [-59.015273, -34.096998], "type": "Point"}, "properties": {"cty": "Argentina", "name": "Zarate", "port": "ARZAE", "t": 1.0, "to_cty": ["BR", "UY", "AR"]}, "type": "Feature"}, {"geometry": {"coordinates": [-69.97541, 12.47543], "type": "Point"}, "properties": {"cty": "Aruba", "name": "Aruba", "port": "AWAUA", "t": 0.0}, "type": "Feature"}, {"geometry": {"coordinates": [-69.990273, 12.481884], "type": "Point"}, "properties": {"cty": "Aruba", "name": "Barcadera", "port": "AWBAR", "t": 1.0, "to_cty": ["CU", "CO", "ES", "PA", "CW", "NL", "CA"]}, "type": "Feature"}, {"geometry": {"coordinates": [-70.037842, 12.538053], "type": "Point"}, "properties": {"cty": "Aruba", "name": "Oranjestad", "port": "AWORJ", "t": 1.0, "to_cty": ["NL", "HT", "PA", "GB", "JM", "DO", "CO", "VE", "CW"]}, "type": "Feature"}, {"geometry": {"coordinates": [-69.916667, 12.433333], "type": "Point"}, "properties": {"cty": "Aruba", "name": "San Nicolas", "port": "AWSNL", "t": null}, "type": "Feature"}, {"geometry": {"coordinates": [148.055675, -19.922318], "type": "Point"}, "properties": {"cty": "Australia", "name": "Abbot Point", "port": "AUABP", "t": null}, "type": "Feature"}, {"geometry": {"coordinates": [138.488159, -34.856812], "type": "Point"}, "properties": {"cty": "Australia", "name": "Adelaide", "port": "AUADL", "t": 1.0, "to_cty": ["AU", "BE", "US", "SG", "GB", "MY", "NZ", "LK", "IT", "DE", "ES", "ID"]}, "type": "Feature"}, {"geometry": {"coordinates": [115.167225, -21.32294], "type": "Point"}, "properties": {"cty": "Australia", "name": "Airlie Island", "port": "AUAIR", "t": null}, "type": "Feature"}, {"geometry": {"coordinates": [117.850379, -35.033335], "type": "Point"}, "properties": {"cty": "Australia", "name": "Albany", "port": "AUALH", "t": null}, "type": "Feature"}, {"geometry": {"coordinates": [137.916667, -34.433333], "type": "Point"}, "properties": {"cty": "Australia", "name": "Ardrossan", "port": "AUARD", "t": null}, "type": "Feature"}, {"geometry": {"coordinates": [137.761541, -35.749999], "type": "Point"}, "properties": {"cty": "Australia", "name": "Ballast Head", "port": "AUBAH", "t": null}, "type": "Feature"}, {"geometry": {"coordinates": [115.407179, -20.826936], "type": "Point"}, "properties": {"cty": "Australia", "name": "Barrow Island", "port": "AUBWB", "t": null}, "type": "Feature"}, {"geometry": {"coordinates": [146.816105, -41.078991], "type": "Point"}, "properties": {"cty": "Australia", "name": "Bell Bay", "port": "AUBEL", "t": 1.0, "to_cty": ["AU", "NC"]}, "type": "Feature"}, {"geometry": {"coordinates": [136.219845, -15.424148], "type": "Point"}, "properties": {"cty": "Australia", "name": "Bing Bong", "port": "AUBBG", "t": null}, "type": "Feature"}, {"geometry": {"coordinates": [151.239171, -33.991034], "type": "Point"}, "properties": {"cty": "Australia", "name": "Botany Bay", "port": "AUBTB", "t": null}, "type": "Feature"}, {"geometry": {"coordinates": [153.183152, -27.466571], "type": "Point"}, "properties": {"cty": "Australia", "name": "Brisbane", "port": "AUBNE", "t": 1.0, "to_cty": ["CN", "NZ", "MY", "AU", "SG", "PG", "HK", "KR", "PA", "TH", "TW", "VN", "SB", "NC", "ID"]}, "type": "Feature"}, {"geometry": {"coordinates": [122.233339, -17.914406], "type": "Point"}, "properties": {"cty": "Australia", "name": "Broome", "port": "AUBME", "t": 0.0}, "type": "Feature"}, {"geometry": {"coordinates": [115.634706, -33.320108], "type": "Point"}, "properties": {"cty": "Australia", "name": "Bunbury", "port": "AUBUY", "t": null}, "type": "Feature"}, {"geometry": {"coordinates": [152.388829, -24.772901], "type": "Point"}, "properties": {"cty": "Australia", "name": "Bundaberg", "port": "AUBDB", "t": null}, "type": "Feature"}, {"geometry": {"coordinates": [145.892595, -41.065034], "type": "Point"}, "properties": {"cty": "Australia", "name": "Burnie", "port": "AUBWT", "t": 1.0}, "type": "Feature"}, {"geometry": {"coordinates": [145.783333, -16.933333], "type": "Point"}, "properties": {"cty": "Australia", "name": "Cairns", "port": "AUCNS", "t": null}, "type": "Feature"}, {"geometry": {"coordinates": [113.416295, -24.251731], "type": "Point"}, "properties": {"cty": "Australia", "name": "Cape Cuvier", "port": "AUCCU", "t": null}, "type": "Feature"}, {"geometry": {"coordinates": [145.283888, -14.980353], "type": "Point"}, "properties": {"cty": "Australia", "name": "Cape Flattery", "port": "AUCQP", "t": null}, "type": "Feature"}, {"geometry": {"coordinates": [113.64413, -24.851713], "type": "Point"}, "properties": {"cty": "Australia", "name": "Carnarvon", "port": "AUCVQ", "t": null}, "type": "Feature"}, {"geometry": {"coordinates": [125.016667, -12.116667], "type": "Point"}, "properties": {"cty": "Australia", "name": "Challis Venture Terminal", "port": "AUCHV", "t": null}, "type": "Feature"}, {"geometry": {"coordinates": [116.449999, -19.583334], "type": "Point"}, "properties": {"cty": "Australia", "name": "Cossack Pioneer Terminal", "port": "AUCOP", "t": null}, "type": "Feature"}, {"geometry": {"coordinates": [116.727468, -20.661527], "type": "Point"}, "properties": {"cty": "Australia", "name": "Dampier", "port": "AUDAM", "t": 0.0, "to_cty": ["AU"]}, "type": "Feature"}, {"geometry": {"coordinates": [130.847163, -12.384024], "type": "Point"}, "properties": {"cty": "Australia", "name": "Darwin", "port": "AUDRW", "t": 1.0, "to_cty": ["BE", "SG", "AU", "NL"]}, "type": "Feature"}, {"geometry": {"coordinates": [130.829022, -12.452682], "type": "Point"}, "properties": {"cty": "Australia", "name": "Darwin (Nt)", "port": "AUDRW", "t": 0.0, "to_cty": ["BE", "SG", "AU", "NL"]}, "type": "Feature"}, {"geometry": {"coordinates": [146.352936, -41.169645], "type": "Point"}, "properties": {"cty": "Australia", "name": "Devonport", "port": "AUDPO", "t": null}, "type": "Feature"}, {"geometry": {"coordinates": [149.883707, -37.066668], "type": "Point"}, "properties": {"cty": "Australia", "name": "Eden", "port": "AUQDN", "t": null}, "type": "Feature"}, {"geometry": {"coordinates": [121.883333, -33.866667], "type": "Point"}, "properties": {"cty": "Australia", "name": "Esperance", "port": "AUEPR", "t": null}, "type": "Feature"}, {"geometry": {"coordinates": [114.166667, -22.333333], "type": "Point"}, "properties": {"cty": "Australia", "name": "Exmouth", "port": "AUPEX", "t": null}, "type": "Feature"}, {"geometry": {"coordinates": [115.751954, -32.037433], "type": "Point"}, "properties": {"cty": "Australia", "name": "Fremantle", "port": "AUFRE", "t": 1.0, "to_cty": ["SG", "AU", "MY", "LK", "ES", "BE", "DE", "IT"]}, "type": "Feature"}, {"geometry": {"coordinates": [144.366667, -38.15], "type": "Point"}, "properties": {"cty": "Australia", "name": "Geelong", "port": "AUGEX", "t": null}, "type": "Feature"}, {"geometry": {"coordinates": [151.259607, -23.842464], "type": "Point"}, "properties": {"cty": "Australia", "name": "Gladstone", "port": "AUGLT", "t": 0.0}, "type": "Feature"}, {"geometry": {"coordinates": [136.581517, -12.218791], "type": "Point"}, "properties": {"cty": "Australia", "name": "Gove", "port": "AUGOV", "t": 0.0}, "type": "Feature"}, {"geometry": {"coordinates": [114.633332, -21.216666], "type": "Point"}, "properties": {"cty": "Australia", "name": "Griffin Venture Terminal", "port": "AUGRV", "t": null}, "type": "Feature"}, {"geometry": {"coordinates": [114.643755, -28.750001], "type": "Point"}, "properties": {"cty": "Australia", "name": "Groote Eylandt", "port": "AUGTE", "t": null}, "type": "Feature"}, {"geometry": {"coordinates": [145.216667, -38.3], "type": "Point"}, "properties": {"cty": "Australia", "name": "Hastings", "port": "AUHAS", "t": null}, "type": "Feature"}, {"geometry": {"coordinates": [149.271353, -21.299936], "type": "Point"}, "properties": {"cty": "Australia", "name": "Hay Point", "port": "AUHPT", "t": null}, "type": "Feature"}, {"geometry": {"coordinates": [147.333333, -42.883333], "type": "Point"}, "properties": {"cty": "Australia", "name": "Hobart", "port": "AUHBA", "t": 1.0}, "type": "Feature"}, {"geometry": {"coordinates": [125.0, -11.916667], "type": "Point"}, "properties": {"cty": "Australia", "name": "Jabiru Marine Terminal", "port": "AUJOV", "t": null}, "type": "Feature"}, {"geometry": {"coordinates": [140.800375, -17.519058], "type": "Point"}, "properties": {"cty": "Australia", "name": "Karumba", "port": "AUKRB", "t": null}, "type": "Feature"}, {"geometry": {"coordinates": [137.606059, -35.650002], "type": "Point"}, "properties": {"cty": "Australia", "name": "Kingscote", "port": "AUKGC", "t": null}, "type": "Feature"}, {"geometry": {"coordinates": [147.316667, -42.966667], "type": "Point"}, "properties": {"cty": "Australia", "name": "Kingston", "port": "AUKIN", "t": 1.0}, "type": "Feature"}, {"geometry": {"coordinates": [137.761173, -34.944156], "type": "Point"}, "properties": {"cty": "Australia", "name": "Klein Point", "port": "AUKLP", "t": null}, "type": "Feature"}, {"geometry": {"coordinates": [115.766667, -32.233333], "type": "Point"}, "properties": {"cty": "Australia", "name": "Kwinana", "port": "AUKWI", "t": null}, "type": "Feature"}, {"geometry": {"coordinates": [147.104188, -41.384488], "type": "Point"}, "properties": {"cty": "Australia", "name": "Launceston", "port": "AULST", "t": 0.0}, "type": "Feature"}, {"geometry": {"coordinates": [146.902056, -41.134486], "type": "Point"}, "properties": {"cty": "Australia", "name": "Longreach Tasmanian", "port": "AULTN", "t": 0.0}, "type": "Feature"}, {"geometry": {"coordinates": [146.333333, -18.533333], "type": "Point"}, "properties": {"cty": "Australia", "name": "Lucinda", "port": "AULUC", "t": null}, "type": "Feature"}, {"geometry": {"coordinates": [149.216667, -21.083333], "type": "Point"}, "properties": {"cty": "Australia", "name": "Mackay", "port": "AUMKY", "t": null}, "type": "Feature"}, {"geometry": {"coordinates": [143.45, -37.3], "type": "Point"}, "properties": {"cty": "Australia", "name": "Maryborough", "port": "AUMBH", "t": null}, "type": "Feature"}, {"geometry": {"coordinates": [144.944168, -37.839716], "type": "Point"}, "properties": {"cty": "Australia", "name": "Melbourne", "port": "AUMEL", "t": 1.0, "to_cty": ["MY", "AU", "CO", "NZ", "SG", "HK", "PA", "KR", "CN", "ID", "PF", "ES", "US", "BE", "LK", "TW", "IT", "TH", "VN", "FR", "CA"]}, "type": "Feature"}, {"geometry": {"coordinates": [136.460609, -13.898663], "type": "Point"}, "properties": {"cty": "Australia", "name": "Milner Bay", "port": "AUMIB", "t": null}, "type": "Feature"}, {"geometry": {"coordinates": [146.131966, -17.613089], "type": "Point"}, "properties": {"cty": "Australia", "name": "Mourilyan", "port": "AUMOU", "t": null}, "type": "Feature"}, {"geometry": {"coordinates": [151.750192, -32.933335], "type": "Point"}, "properties": {"cty": "Australia", "name": "Newcastle", "port": "AUNTL", "t": 0.0}, "type": "Feature"}, {"geometry": {"coordinates": [115.816667, -31.966667], "type": "Point"}, "properties": {"cty": "Australia", "name": "Perth", "port": "AUPTH", "t": 0.0}, "type": "Feature"}, {"geometry": {"coordinates": [150.858429, -23.579558], "type": "Point"}, "properties": {"cty": "Australia", "name": "Port Alma", "port": "AUPTL", "t": null}, "type": "Feature"}, {"geometry": {"coordinates": [137.744698, -32.961376], "type": "Point"}, "properties": {"cty": "Australia", "name": "Port Bonython", "port": "AUPBY", "t": null}, "type": "Feature"}, {"geometry": {"coordinates": [137.744698, -35.028837], "type": "Point"}, "properties": {"cty": "Australia", "name": "Port Giles", "port": "AUPGI", "t": null}, "type": "Feature"}, {"geometry": {"coordinates": [118.542482, -20.324428], "type": "Point"}, "properties": {"cty": "Australia", "name": "Port Hedland", "port": "AUPHE", "t": 0.0, "to_cty": ["AU"]}, "type": "Feature"}, {"geometry": {"coordinates": [146.966667, -43.166667], "type": "Point"}, "properties": {"cty": "Australia", "name": "Port Huon", "port": "AUPHU", "t": null}, "type": "Feature"}, {"geometry": {"coordinates": [150.897252, -34.473461], "type": "Point"}, "properties": {"cty": "Australia", "name": "Port Kembla", "port": "AUPKL", "t": 0.0}, "type": "Feature"}, {"geometry": {"coordinates": [141.589207, -38.337643], "type": "Point"}, "properties": {"cty": "Australia", "name": "Portland", "port": "AUPTJ", "t": null}, "type": "Feature"}, {"geometry": {"coordinates": [145.36667, -40.870728], "type": "Point"}, "properties": {"cty": "Australia", "name": "Port Latta", "port": "AUPLA", "t": null}, "type": "Feature"}, {"geometry": {"coordinates": [135.839198, -34.724303], "type": "Point"}, "properties": {"cty": "Australia", "name": "Port Lincoln", "port": "AUPLO", "t": null}, "type": "Feature"}, {"geometry": {"coordinates": [138.083899, -33.149999], "type": "Point"}, "properties": {"cty": "Australia", "name": "Port Pirie", "port": "AUPPI", "t": null}, "type": "Feature"}, {"geometry": {"coordinates": [138.537888, -35.038368], "type": "Point"}, "properties": {"cty": "Australia", "name": "Port Stanvac", "port": "AUPST", "t": null}, "type": "Feature"}, {"geometry": {"coordinates": [117.183333, -20.616667], "type": "Point"}, "properties": {"cty": "Australia", "name": "Port Walcott", "port": "AUPWL", "t": null}, "type": "Feature"}, {"geometry": {"coordinates": [115.05, -21.4], "type": "Point"}, "properties": {"cty": "Australia", "name": "Saladin Marine Terminal", "port": "AUSMT", "t": null}, "type": "Feature"}, {"geometry": {"coordinates": [147.938824, -42.525714], "type": "Point"}, "properties": {"cty": "Australia", "name": "Spring Bay", "port": "AUSPB", "t": null}, "type": "Feature"}, {"geometry": {"coordinates": [145.195629, -40.812443], "type": "Point"}, "properties": {"cty": "Australia", "name": "Stanley", "port": "AUSTA", "t": null}, "type": "Feature"}, {"geometry": {"coordinates": [145.333333, -42.15], "type": "Point"}, "properties": {"cty": "Australia", "name": "Strahan", "port": "AUSRN", "t": null}, "type": "Feature"}, {"geometry": {"coordinates": [151.182861, -33.869644], "type": "Point"}, "properties": {"cty": "Australia", "name": "Sydney", "port": "AUSYD", "t": 1.0, "to_cty": ["AU", "CA", "NZ", "MY", "ID", "CN", "US", "PF", "PA", "SG", "ES", "IT", "HK", "VN", "BE", "KR", "TH", "LK", "NC", "CO", "TW", "FR", "NL", "JP"]}, "type": "Feature"}, {"geometry": {"coordinates": [133.533709, -32.153505], "type": "Point"}, "properties": {"cty": "Australia", "name": "Thevenard", "port": "AUTHE", "t": null}, "type": "Feature"}, {"geometry": {"coordinates": [142.194689, -10.559034], "type": "Point"}, "properties": {"cty": "Australia", "name": "Thursday Island", "port": "AUTIS", "t": null, "to_cty": ["SB", "PG", "NZ", "AU"]}, "type": "Feature"}, {"geometry": {"coordinates": [146.250005, -17.5], "type": "Point"}, "properties": {"cty": "Australia", "name": "Torres Strait", "port": "AUTR0", "t": 0.0}, "type": "Feature"}, {"geometry": {"coordinates": [146.843262, -19.293383], "type": "Point"}, "properties": {"cty": "Australia", "name": "Townsville", "port": "AUTSV", "t": 1.0, "to_cty": ["BE", "SB", "NL", "PG"]}, "type": "Feature"}, {"geometry": {"coordinates": [113.399998, -26.132661], "type": "Point"}, "properties": {"cty": "Australia", "name": "Useless Loop", "port": "AUUSL", "t": null}, "type": "Feature"}, {"geometry": {"coordinates": [115.599995, -20.633334], "type": "Point"}, "properties": {"cty": "Australia", "name": "Varanus Island Terminal", "port": "AUVAR", "t": null}, "type": "Feature"}, {"geometry": {"coordinates": [137.64413, -33.942447], "type": "Point"}, "properties": {"cty": "Australia", "name": "Wallaroo", "port": "AUWAL", "t": null}, "type": "Feature"}, {"geometry": {"coordinates": [141.871977, -12.645228], "type": "Point"}, "properties": {"cty": "Australia", "name": "Weipa", "port": "AUWEI", "t": null}, "type": "Feature"}, {"geometry": {"coordinates": [137.583333, -33.016667], "type": "Point"}, "properties": {"cty": "Australia", "name": "Whyalla", "port": "AUWYA", "t": null}, "type": "Feature"}, {"geometry": {"coordinates": [128.121973, -15.466666], "type": "Point"}, "properties": {"cty": "Australia", "name": "Wyndham", "port": "AUWYN", "t": 0.0}, "type": "Feature"}, {"geometry": {"coordinates": [153.339195, -29.364018], "type": "Point"}, "properties": {"cty": "Australia", "name": "Yamba", "port": "AUYBA", "t": null}, "type": "Feature"}, {"geometry": {"coordinates": [16.364136, 48.213693], "type": "Point"}, "properties": {"cty": "Austria", "name": "Vienna", "port": "ATVIE", "t": 0.0, "to_cty": ["HU", "RS", "DE", "NL", "IT", "AT", "TR", "CZ", "SI", "RO"]}, "type": "Feature"}, {"geometry": {"coordinates": [14.03333, 48.16667], "type": "Point"}, "properties": {"cty": "Austria", "name": "Wels", "port": "ATWEL", "t": 0.0}, "type": "Feature"}, {"geometry": {"coordinates": [49.887766, 40.381471], "type": "Point"}, "properties": {"cty": "Azerbaijan", "name": "Baku", "port": "AZBAK", "t": 0.0, "to_cty": ["LV"]}, "type": "Feature"}, {"geometry": {"coordinates": [-78.699065, 26.508758], "type": "Point"}, "properties": {"cty": "Bahamas", "name": "Freeport", "port": "BSFPO", "t": 1.0, "to_cty": ["DE", "AE", "CN", "CA", "BS", "SA", "KR", "IN", "MY", "MX", "ZA", "BE", "IT", "OM", "ES", "NL", "US", "SG", "PA", "HK", "DO", "BR", "UY", "VN", "PK", "TR", "LK", "AR", "PT"]}, "type": "Feature"}, {"geometry": {"coordinates": [-73.0, 21.516667], "type": "Point"}, "properties": {"cty": "Bahamas", "name": "Inagua Islands", "port": "BSIGA", "t": null}, "type": "Feature"}, {"geometry": {"coordinates": [-77.333333, 25.083333], "type": "Point"}, "properties": {"cty": "Bahamas", "name": "Nassau", "port": "BSNAS", "t": 1.0, "to_cty": ["SX", "BB", "VC", "BS", "JM", "MQ"]}, "type": "Feature"}, {"geometry": {"coordinates": [-79.216667, 25.416667], "type": "Point"}, "properties": {"cty": "Bahamas", "name": "Ocean Cay", "port": "BSOCE", "t": null}, "type": "Feature"}, {"geometry": {"coordinates": [-78.216669, 26.644197], "type": "Point"}, "properties": {"cty": "Bahamas", "name": "South Riding Point", "port": "BSSRP", "t": null}, "type": "Feature"}, {"geometry": {"coordinates": [50.616667, 26.205546], "type": "Point"}, "properties": {"cty": "Bahrain", "name": "Bahrain", "port": "BHBAH", "t": 1.0}, "type": "Feature"}, {"geometry": {"coordinates": [50.625796, 26.010984], "type": "Point"}, "properties": {"cty": "Bahrain", "name": "Mina Sulman", "port": "BHMSN", "t": 1.0}, "type": "Feature"}, {"geometry": {"coordinates": [50.633022, 26.141371], "type": "Point"}, "properties": {"cty": "Bahrain", "name": "Sitra", "port": "BHSIT", "t": null}, "type": "Feature"}, {"geometry": {"coordinates": [89.516667, 22.6], "type": "Point"}, "properties": {"cty": "Bangladesh", "name": "Chalna", "port": "BDCHL", "t": 0.0}, "type": "Feature"}, {"geometry": {"coordinates": [91.83845, 22.331041], "type": "Point"}, "properties": {"cty": "Bangladesh", "name": "Chittagong", "port": "BDCGP", "t": 1.0, "to_cty": ["SG", "CN", "LK", "TW", "MY", "HK", "BD", "VN"]}, "type": "Feature"}, {"geometry": {"coordinates": [90.437394, 23.687567], "type": "Point"}, "properties": {"cty": "Bangladesh", "name": "Dhaka", "port": "BDDAC", "t": 1.0}, "type": "Feature"}, {"geometry": {"coordinates": [89.58252, 22.467297], "type": "Point"}, "properties": {"cty": "Bangladesh", "name": "Mongla", "port": "BDMGL", "t": 1.0, "to_cty": ["MY", "SG"]}, "type": "Feature"}, {"geometry": {"coordinates": [-59.6, 13.083333], "type": "Point"}, "properties": {"cty": "Barbados", "name": "Bridgetown", "port": "BBBGI", "t": 1.0, "to_cty": ["DO", "TT", "JM", "LC", "GB", "DM", "NL", "GY", "GD", "SR", "KN", "VC", "PA", "CO", "AG"]}, "type": "Feature"}, {"geometry": {"coordinates": [23.689957, 52.103553], "type": "Point"}, "properties": {"cty": "Belarus", "name": "Brest", "port": "BYBQT", "t": null, "to_cty": ["PL"]}, "type": "Feature"}, {"geometry": {"coordinates": [4.382896, 51.202366], "type": "Point"}, "properties": {"cty": "Belgium", "name": "Antwerpen", "port": "BEANR", "t": 1.0, "to_cty": ["PT", "MT", "DE", "IE", "FR", "FI", "IN", "CO", "GB", "GR", "SG", "US", "AE", "CH", "ZA", "SE", "CN", "NL", "PA", "OM", "PK", "AR", "CL", "AU", "BE", "TR", "CA", "PL", "CI", "ES", "MX", "BR", "EE", "UY", "EG", "AO", "SA", "CM", "IT", "TW", "DK", "KR", "DZ", "IL", "VN", "LV", "BS", "GA", "SN", "NO", "RE", "GH", "LU", "DJ", "GN", "MY", "MU", "NG", "BJ", "MA", "AT", "LK", "EC", "LT", "DO", "HK", "CR", "PE", "CG", "TG", "RU", "TH", "JM", "MR", "BZ"]}, "type": "Feature"}, {"geometry": {"coordinates": [4.35, 50.866667], "type": "Point"}, "properties": {"cty": "Belgium", "name": "Brussels", "port": "BEBRU", "t": 0.0, "to_cty": ["BE"]}, "type": "Feature"}, {"geometry": {"coordinates": [3.734535, 51.080431], "type": "Point"}, "properties": {"cty": "Belgium", "name": "Ghent", "port": "BEGNE", "t": null, "to_cty": ["IT", "BE", "NL", "GB"]}, "type": "Feature"}, {"geometry": {"coordinates": [4.21, 51.09], "type": "Point"}, "properties": {"cty": "Belgium", "name": "Hemiksem", "port": "BEHEX", "t": null}, "type": "Feature"}, {"geometry": {"coordinates": [5.566667, 50.666667], "type": "Point"}, "properties": {"cty": "Belgium", "name": "Liege", "port": "BELGG", "t": null, "to_cty": ["BE"]}, "type": "Feature"}, {"geometry": {"coordinates": [4.18, 51.0], "type": "Point"}, "properties": {"cty": "Belgium", "name": "Londerzeel", "port": "BELON", "t": null}, "type": "Feature"}, {"geometry": {"coordinates": [2.718383, 51.149999], "type": "Point"}, "properties": {"cty": "Belgium", "name": "Nieuwpoort", "port": "BENIE", "t": null}, "type": "Feature"}, {"geometry": {"coordinates": [2.903137, 51.225995], "type": "Point"}, "properties": {"cty": "Belgium", "name": "Ostend", "port": "BEOST", "t": 0.0}, "type": "Feature"}, {"geometry": {"coordinates": [3.217278, 51.337071], "type": "Point"}, "properties": {"cty": "Belgium", "name": "Zeebgrugge", "port": "BEZEE", "t": 1.0, "to_cty": ["DE", "FI", "SG", "CN", "FR", "IT", "IE", "NL", "LT", "BE", "GB", "PL", "TH", "GP", "PT", "ES", "CR", "CH", "PA", "RU", "MA", "EG", "MQ", "CO", "LV", "JM", "DO"]}, "type": "Feature"}, {"geometry": {"coordinates": [-88.190002, 17.50386], "type": "Point"}, "properties": {"cty": "Belize", "name": "Belize", "port": "BZBZE", "t": 1.0, "to_cty": ["JM"]}, "type": "Feature"}, {"geometry": {"coordinates": [-88.200002, 17.5], "type": "Point"}, "properties": {"cty": "Belize", "name": "Belize City", "port": "BZBZC", "t": 1.0}, "type": "Feature"}, {"geometry": {"coordinates": [2.433333, 6.35], "type": "Point"}, "properties": {"cty": "Benin", "name": "Cotonou", "port": "BJCOO", "t": 1.0, "to_cty": ["CN", "CI", "GH", "IN", "TG", "SG", "NA", "ES", "FR", "BE", "MA", "ZA", "AE", "KR", "MY", "NG", "CM", "CG", "AO", "LK", "GQ", "GB", "IT"]}, "type": "Feature"}, {"geometry": {"coordinates": [2.666667, 6.25], "type": "Point"}, "properties": {"cty": "Benin", "name": "Seme Terminal", "port": "BJSEM", "t": null}, "type": "Feature"}, {"geometry": {"coordinates": [-64.833333, 32.316667], "type": "Point"}, "properties": {"cty": "Bermuda", "name": "Freeport", "port": "BMFPT", "t": null}, "type": "Feature"}, {"geometry": {"coordinates": [-64.766667, 32.283333], "type": "Point"}, "properties": {"cty": "Bermuda", "name": "Hamilton", "port": "BMBDA", "t": 1.0, "to_cty": ["US"]}, "type": "Feature"}, {"geometry": {"coordinates": [-64.7, 32.366667], "type": "Point"}, "properties": {"cty": "Bermuda", "name": "St George's", "port": "BMSGE", "t": null}, "type": "Feature"}, {"geometry": {"coordinates": [-44.369414, -2.697051], "type": "Point"}, "properties": {"cty": "Brazil", "name": "Alumar", "port": "BRALU", "t": null}, "type": "Feature"}, {"geometry": {"coordinates": [-44.316667, -23.0], "type": "Point"}, "properties": {"cty": "Brazil", "name": "Angra dos Reis", "port": "BRADR", "t": null}, "type": "Feature"}, {"geometry": {"coordinates": [-37.025281, -10.908576], "type": "Point"}, "properties": {"cty": "Brazil", "name": "Aracaju", "port": "BRAJU", "t": null}, "type": "Feature"}, {"geometry": {"coordinates": [-37.46, -4.34], "type": "Point"}, "properties": {"cty": "Brazil", "name": "Aracati", "port": "BRATI", "t": null}, "type": "Feature"}, {"geometry": {"coordinates": [-38.500212, -12.78429], "type": "Point"}, "properties": {"cty": "Brazil", "name": "Aratu", "port": "BRARB", "t": 0.0}, "type": "Feature"}, {"geometry": {"coordinates": [-37.08, -4.57], "type": "Point"}, "properties": {"cty": "Brazil", "name": "Areia Branca", "port": "BRARE", "t": null}, "type": "Feature"}, {"geometry": {"coordinates": [-48.709269, -25.430854], "type": "Point"}, "properties": {"cty": "Brazil", "name": "Barao De Teffe", "port": "BRBDT", "t": null}, "type": "Feature"}, {"geometry": {"coordinates": [-48.468935, -1.333932], "type": "Point"}, "properties": {"cty": "Brazil", "name": "Belem", "port": "BRBEL", "t": 0.0}, "type": "Feature"}, {"geometry": {"coordinates": [-34.882773, -6.95], "type": "Point"}, "properties": {"cty": "Brazil", "name": "Cabedello", "port": "BRCAB", "t": null}, "type": "Feature"}, {"geometry": {"coordinates": [-57.616667, -19.0], "type": "Point"}, "properties": {"cty": "Brazil", "name": "Corumba", "port": "BRCMG", "t": null}, "type": "Feature"}, {"geometry": {"coordinates": [-42.057679, -22.951493], "type": "Point"}, "properties": {"cty": "Brazil", "name": "Forno", "port": "BRFNO", "t": null}, "type": "Feature"}, {"geometry": {"coordinates": [-38.614197, -3.730942], "type": "Point"}, "properties": {"cty": "Brazil", "name": "Fortaleza", "port": "BRFOR", "t": 1.0, "to_cty": ["BR", "ES"]}, "type": "Feature"}, {"geometry": {"coordinates": [-44.1892, -23.024725], "type": "Point"}, "properties": {"cty": "Brazil", "name": "Gebig", "port": "BRGEB", "t": null}, "type": "Feature"}, {"geometry": {"coordinates": [-39.048441, -14.789378], "type": "Point"}, "properties": {"cty": "Brazil", "name": "Ilheus", "port": "BRIOS", "t": null}, "type": "Feature"}, {"geometry": {"coordinates": [-48.658753, -28.235625], "type": "Point"}, "properties": {"cty": "Brazil", "name": "Imbituba", "port": "BRIBB", "t": 1.0, "to_cty": ["BR"]}, "type": "Feature"}, {"geometry": {"coordinates": [-48.65, -26.9], "type": "Point"}, "properties": {"cty": "Brazil", "name": "Itajai", "port": "BRITJ", "t": 1.0, "to_cty": ["AR", "MX", "BR", "ES", "KR", "UY", "CN", "DO", "MA", "US", "HK", "SG", "BE", "DE", "NL", "IT", "ZA", "CO", "PA", "JM", "GB", "BS", "FR", "PT", "AO"]}, "type": "Feature"}, {"geometry": {"coordinates": [-48.6026, -26.184], "type": "Point"}, "properties": {"cty": "Brazil", "name": "Itapoa", "port": "BRIOA", "t": 1.0, "to_cty": ["BR", "US", "ES", "KR", "UY", "HK", "PE", "CN", "PA", "CL", "MX", "EC", "SG", "AR", "IT", "MA"]}, "type": "Feature"}, {"geometry": {"coordinates": [-44.341947, -2.569614], "type": "Point"}, "properties": {"cty": "Brazil", "name": "Itaqui", "port": "BRITQ", "t": 1.0}, "type": "Feature"}, {"geometry": {"coordinates": [-34.52, -7.07], "type": "Point"}, "properties": {"cty": "Brazil", "name": "Joao Pessoa", "port": "BRJPA", "t": null}, "type": "Feature"}, {"geometry": {"coordinates": [-51.036301, 0.077502], "type": "Point"}, "properties": {"cty": "Brazil", "name": "Macapa", "port": "BRMCP", "t": 0.0, "to_cty": ["BR", "CO"]}, "type": "Feature"}, {"geometry": {"coordinates": [-35.788265, -9.680626], "type": "Point"}, "properties": {"cty": "Brazil", "name": "Maceio", "port": "BRMCZ", "t": 0.0}, "type": "Feature"}, {"geometry": {"coordinates": [-60.008583, -3.14396], "type": "Point"}, "properties": {"cty": "Brazil", "name": "Manaus", "port": "BRMAO", "t": 1.0, "to_cty": ["BR", "PA", "JM", "CO"]}, "type": "Feature"}, {"geometry": {"coordinates": [-52.416667, -0.916667], "type": "Point"}, "properties": {"cty": "Brazil", "name": "Munguba", "port": "BRMGU", "t": null}, "type": "Feature"}, {"geometry": {"coordinates": [-35.2, -5.766667], "type": "Point"}, "properties": {"cty": "Brazil", "name": "Natal", "port": "BRNAT", "t": 1.0, "to_cty": ["ES"]}, "type": "Feature"}, {"geometry": {"coordinates": [-51.206724, -30.001831], "type": "Point"}, "properties": {"cty": "Brazil", "name": "Navegantes", "port": "BRNVT", "t": 1.0}, "type": "Feature"}, {"geometry": {"coordinates": [-43.116667, -22.883333], "type": "Point"}, "properties": {"cty": "Brazil", "name": "Niteroi", "port": "BRNTR", "t": null}, "type": "Feature"}, {"geometry": {"coordinates": [-55.516667, -1.891373], "type": "Point"}, "properties": {"cty": "Brazil", "name": "Obidos", "port": "BROBI", "t": null}, "type": "Feature"}, {"geometry": {"coordinates": [-48.507385, -25.554053], "type": "Point"}, "properties": {"cty": "Brazil", "name": "Paranagua", "port": "BRPNG", "t": 1.0, "to_cty": ["GB", "BR", "CN", "ES", "UY", "KR", "HK", "US", "MA", "AR", "BE", "SG", "ZA", "DO", "MX", "DE", "IT", "NL", "JM", "BS", "PT", "PA", "FR", "CO", "AO"]}, "type": "Feature"}, {"geometry": {"coordinates": [-38.845232, -3.571472], "type": "Point"}, "properties": {"cty": "Brazil", "name": "Pecem", "port": "BRPEC", "t": 1.0, "to_cty": ["DE", "BR", "US", "MA", "AR", "GB", "NL"]}, "type": "Feature"}, {"geometry": {"coordinates": [-52.316667, -31.783333], "type": "Point"}, "properties": {"cty": "Brazil", "name": "Pelotas", "port": "BRPET", "t": null}, "type": "Feature"}, {"geometry": {"coordinates": [-40.583333, -20.783333], "type": "Point"}, "properties": {"cty": "Brazil", "name": "Ponta Ubu", "port": "BRPOU", "t": null}, "type": "Feature"}, {"geometry": {"coordinates": [-51.231309, -30.052023], "type": "Point"}, "properties": {"cty": "Brazil", "name": "Porto Alegre", "port": "BRPOA", "t": 1.0}, "type": "Feature"}, {"geometry": {"coordinates": [-40.063731, -19.847416], "type": "Point"}, "properties": {"cty": "Brazil", "name": "Portocel", "port": "BRPCL", "t": null}, "type": "Feature"}, {"geometry": {"coordinates": [-40.287079, -20.268037], "type": "Point"}, "properties": {"cty": "Brazil", "name": "Praia Mole", "port": "BRPRM", "t": null}, "type": "Feature"}, {"geometry": {"coordinates": [-34.874905, -8.033682], "type": "Point"}, "properties": {"cty": "Brazil", "name": "Recife", "port": "BRREC", "t": 1.0}, "type": "Feature"}, {"geometry": {"coordinates": [-43.2, -22.9], "type": "Point"}, "properties": {"cty": "Brazil", "name": "Rio De Jan Eiro", "port": "BRRIO", "t": 1.0, "to_cty": ["US", "DE", "MA", "MX", "UY", "ES", "BR", "CO", "CL", "BE", "PA", "DO", "IT", "BS", "AR", "GB", "PT", "EC", "NL", "PE", "JM", "FR"]}, "type": "Feature"}, {"geometry": {"coordinates": [-52.086182, -32.046737], "type": "Point"}, "properties": {"cty": "Brazil", "name": "Rio Grande", "port": "BRRIG", "t": 1.0, "to_cty": ["PE", "NL", "US", "BR", "DE", "KR", "CN", "SG", "MX", "PT", "CL", "DO", "HK", "CO", "EC", "BS", "GB", "BE", "FR", "MA", "ZA", "PA", "ES"]}, "type": "Feature"}, {"geometry": {"coordinates": [-38.501587, -12.971132], "type": "Point"}, "properties": {"cty": "Brazil", "name": "Salvador", "port": "BRSSA", "t": 1.0, "to_cty": ["BR", "UY", "US", "MA", "DO", "ES", "DE", "FR", "PA", "BE", "GB", "PT", "NL", "AR"]}, "type": "Feature"}, {"geometry": {"coordinates": [-51.164017, -0.056472], "type": "Point"}, "properties": {"cty": "Brazil", "name": "Santana", "port": "BRSAN", "t": 0.0}, "type": "Feature"}, {"geometry": {"coordinates": [-54.7, -2.433333], "type": "Point"}, "properties": {"cty": "Brazil", "name": "Santarem", "port": "BRSTM", "t": null}, "type": "Feature"}, {"geometry": {"coordinates": [-46.320786, -23.973773], "type": "Point"}, "properties": {"cty": "Brazil", "name": "Santos", "port": "BRSSZ", "t": 1.0, "to_cty": ["UY", "CN", "MX", "US", "CL", "HK", "BR", "KR", "GB", "DO", "AR", "MA", "CO", "ES", "NL", "PE", "BS", "SG", "PA", "DE", "BE", "FR", "IT", "ZA", "EC", "AO", "PT"]}, "type": "Feature"}, {"geometry": {"coordinates": [-48.52653, -26.270282], "type": "Point"}, "properties": {"cty": "Brazil", "name": "Sao Francisco", "port": "BRSFS", "t": 1.0}, "type": "Feature"}, {"geometry": {"coordinates": [-45.421786, -23.800001], "type": "Point"}, "properties": {"cty": "Brazil", "name": "Sao Sebastiao", "port": "BRSSO", "t": 1.0}, "type": "Feature"}, {"geometry": {"coordinates": [-43.830587, -22.920686], "type": "Point"}, "properties": {"cty": "Brazil", "name": "Sepetiba", "port": "BRSEP", "t": 1.0}, "type": "Feature"}, {"geometry": {"coordinates": [-34.982959, -8.408152], "type": "Point"}, "properties": {"cty": "Brazil", "name": "Suape", "port": "BRSUA", "t": 1.0, "to_cty": ["BR", "BS", "ES", "AR", "US", "UY", "DO", "PA"]}, "type": "Feature"}, {"geometry": {"coordinates": [-50.147068, -30.021407], "type": "Point"}, "properties": {"cty": "Brazil", "name": "Tramandai", "port": "BRTRM", "t": null}, "type": "Feature"}, {"geometry": {"coordinates": [-56.383333, -1.466667], "type": "Point"}, "properties": {"cty": "Brazil", "name": "Trombetas", "port": "BRTMT", "t": null}, "type": "Feature"}, {"geometry": {"coordinates": [-40.244506, -20.279469], "type": "Point"}, "properties": {"cty": "Brazil", "name": "Tubarao", "port": "BRTUB", "t": null}, "type": "Feature"}, {"geometry": {"coordinates": [-48.733519, -1.552552], "type": "Point"}, "properties": {"cty": "Brazil", "name": "Vila do Conde", "port": "BRVLC", "t": 1.0}, "type": "Feature"}, {"geometry": {"coordinates": [-40.293509, -20.343785], "type": "Point"}, "properties": {"cty": "Brazil", "name": "Vitoria", "port": "BRVIX", "t": 1.0, "to_cty": ["BR"]}, "type": "Feature"}, {"geometry": {"coordinates": [-64.61667, 18.428393], "type": "Point"}, "properties": {"cty": "British_virgin_islands", "name": "Tortola", "port": "VGTOV", "t": 1.0}, "type": "Feature"}, {"geometry": {"coordinates": [114.227093, 4.588809], "type": "Point"}, "properties": {"cty": "Brunei", "name": "Kuala Belait", "port": "BNKUB", "t": 1.0}, "type": "Feature"}, {"geometry": {"coordinates": [114.463732, 4.670131], "type": "Point"}, "properties": {"cty": "Brunei", "name": "Lumut", "port": "BNLUM", "t": null}, "type": "Feature"}, {"geometry": {"coordinates": [115.065642, 5.022823], "type": "Point"}, "properties": {"cty": "Brunei", "name": "Muara", "port": "BNMUA", "t": 1.0, "to_cty": ["MY", "PH", "CN", "HK", "TW"]}, "type": "Feature"}, {"geometry": {"coordinates": [115.065219, 5.009891], "type": "Point"}, "properties": {"cty": "Brunei", "name": "Muara Harbour", "port": "BNMUH", "t": 1.0}, "type": "Feature"}, {"geometry": {"coordinates": [114.315107, 4.612642], "type": "Point"}, "properties": {"cty": "Brunei", "name": "Seria", "port": "BNSER", "t": null}, "type": "Feature"}, {"geometry": {"coordinates": [115.110804, 4.893406], "type": "Point"}, "properties": {"cty": "Brunei", "name": "Tanjong Salirontanjo", "port": "BNTSG", "t": null}, "type": "Feature"}, {"geometry": {"coordinates": [28.169413, 43.408482], "type": "Point"}, "properties": {"cty": "Bulgaria", "name": "Balchik", "port": "BGBAL", "t": null}, "type": "Feature"}, {"geometry": {"coordinates": [27.491573, 42.43784], "type": "Point"}, "properties": {"cty": "Bulgaria", "name": "Burgas", "port": "BGBOJ", "t": 1.0, "to_cty": ["RO", "MA", "IT", "GR", "ES", "TR", "BG"]}, "type": "Feature"}, {"geometry": {"coordinates": [28.2, 43.26], "type": "Point"}, "properties": {"cty": "Bulgaria", "name": "Kavarna", "port": "BGKAV", "t": null}, "type": "Feature"}, {"geometry": {"coordinates": [27.723034, 42.660101], "type": "Point"}, "properties": {"cty": "Bulgaria", "name": "Nessebar", "port": "BGNES", "t": null}, "type": "Feature"}, {"geometry": {"coordinates": [23.5, 43.116667], "type": "Point"}, "properties": {"cty": "Bulgaria", "name": "Sofia", "port": "BGSOF", "t": 1.0, "to_cty": ["GR"]}, "type": "Feature"}, {"geometry": {"coordinates": [27.92166, 43.206506], "type": "Point"}, "properties": {"cty": "Bulgaria", "name": "Varna", "port": "BGVAR", "t": 1.0, "to_cty": ["TR", "GR", "EG", "RO", "GE", "IL"]}, "type": "Feature"}, {"geometry": {"coordinates": [103.5, 10.633333], "type": "Point"}, "properties": {"cty": "Cambodia", "name": "Kompong Som", "port": "KHKOS", "t": null, "to_cty": ["MY", "HK", "TH", "SG", "CN"]}, "type": "Feature"}, {"geometry": {"coordinates": [104.916667, 11.583333], "type": "Point"}, "properties": {"cty": "Cambodia", "name": "Phnom Penh", "port": "KHPNH", "t": 1.0, "to_cty": ["VN"]}, "type": "Feature"}, {"geometry": {"coordinates": [103.52417, 10.607886], "type": "Point"}, "properties": {"cty": "Cambodia", "name": "Sihanoukville", "port": "KHSIH", "t": 1.0}, "type": "Feature"}, {"geometry": {"coordinates": [9.695506, 4.04726], "type": "Point"}, "properties": {"cty": "Cameroon", "name": "Douala", "port": "CMDLA", "t": 1.0, "to_cty": ["CM", "CG", "MA", "AO", "TG", "CI", "GA", "ES", "GH", "ZA"]}, "type": "Feature"}, {"geometry": {"coordinates": [13.35, 9.316667], "type": "Point"}, "properties": {"cty": "Cameroon", "name": "Garoua", "port": "CMGOU", "t": null}, "type": "Feature"}, {"geometry": {"coordinates": [8.55, 4.216667], "type": "Point"}, "properties": {"cty": "Cameroon", "name": "Kole Terminal", "port": "CMKOL", "t": null}, "type": "Feature"}, {"geometry": {"coordinates": [9.933333, 2.933333], "type": "Point"}, "properties": {"cty": "Cameroon", "name": "Kribi", "port": "CMKBI", "t": 1.0, "to_cty": ["CM", "ES", "TG", "CI", "PT", "FR", "BE", "BJ", "SG", "NG", "GH", "MA", "LK", "CN"]}, "type": "Feature"}, {"geometry": {"coordinates": [9.116667, 4.016439], "type": "Point"}, "properties": {"cty": "Cameroon", "name": "Limboh Terminal", "port": "CMLIT", "t": null}, "type": "Feature"}, {"geometry": {"coordinates": [8.483333, 4.116667], "type": "Point"}, "properties": {"cty": "Cameroon", "name": "Moudi Terminal", "port": "CMMOU", "t": null}, "type": "Feature"}, {"geometry": {"coordinates": [9.290136, 3.998172], "type": "Point"}, "properties": {"cty": "Cameroon", "name": "Tiko", "port": "CMTKC", "t": null}, "type": "Feature"}, {"geometry": {"coordinates": [9.201373, 4.016439], "type": "Point"}, "properties": {"cty": "Cameroon", "name": "Victoria", "port": "CMVCC", "t": null}, "type": "Feature"}, {"geometry": {"coordinates": [-135.0, 68.13], "type": "Point"}, "properties": {"cty": "Canada", "name": "Aklavik", "port": "CAAKL", "t": null}, "type": "Feature"}, {"geometry": {"coordinates": [-61.833333, 47.233333], "type": "Point"}, "properties": {"cty": "Canada", "name": "Amherst", "port": "CAAMN", "t": null}, "type": "Feature"}, {"geometry": {"coordinates": [-83.089201, 42.087771], "type": "Point"}, "properties": {"cty": "Canada", "name": "Amherstburg", "port": "CAAMH", "t": null}, "type": "Feature"}, {"geometry": {"coordinates": [-53.993684, 47.27582], "type": "Point"}, "properties": {"cty": "Canada", "name": "Argentia", "port": "CANWP", "t": 0.0, "to_cty": ["IS", "CA", "US"]}, "type": "Feature"}, {"geometry": {"coordinates": [-61.033333, 45.516667], "type": "Point"}, "properties": {"cty": "Canada", "name": "Arichat", "port": "CAARI", "t": null}, "type": "Feature"}, {"geometry": {"coordinates": [-60.759488, 46.095715], "type": "Point"}, "properties": {"cty": "Canada", "name": "Baddeck", "port": "CABAD", "t": null}, "type": "Feature"}, {"geometry": {"coordinates": [-68.15, 49.216667], "type": "Point"}, "properties": {"cty": "Canada", "name": "Baie Comeau", "port": "CABCO", "t": null}, "type": "Feature"}, {"geometry": {"coordinates": [-56.2, 49.925508], "type": "Point"}, "properties": {"cty": "Canada", "name": "Baie Verte", "port": "CABVE", "t": null}, "type": "Feature"}, {"geometry": {"coordinates": [-65.699439, 47.616667], "type": "Point"}, "properties": {"cty": "Canada", "name": "Bathurst", "port": "CABAT", "t": null}, "type": "Feature"}, {"geometry": {"coordinates": [-53.26829, 47.583329], "type": "Point"}, "properties": {"cty": "Canada", "name": "Bay Roberts", "port": "CABYR", "t": null}, "type": "Feature"}, {"geometry": {"coordinates": [-67.133333, 45.15], "type": "Point"}, "properties": {"cty": "Canada", "name": "Bayside", "port": "CABAY", "t": null}, "type": "Feature"}, {"geometry": {"coordinates": [-66.751186, 45.05357], "type": "Point"}, "properties": {"cty": "Canada", "name": "Beaver Harbour", "port": "CABEH", "t": null}, "type": "Feature"}, {"geometry": {"coordinates": [-72.450624, 46.36021], "type": "Point"}, "properties": {"cty": "Canada", "name": "Becancour", "port": "CABEC", "t": null}, "type": "Feature"}, {"geometry": {"coordinates": [-126.766667, 52.383333], "type": "Point"}, "properties": {"cty": "Canada", "name": "Bella Coola", "port": "CABLC", "t": null}, "type": "Feature"}, {"geometry": {"coordinates": [-65.859614, 47.901937], "type": "Point"}, "properties": {"cty": "Canada", "name": "Belledune", "port": "CABEL", "t": 0.0}, "type": "Feature"}, {"geometry": {"coordinates": [-57.153433, 51.41756], "type": "Point"}, "properties": {"cty": "Canada", "name": "Blanc-Sablon", "port": "CAYBX", "t": null}, "type": "Feature"}, {"geometry": {"coordinates": [-55.338514, 49.124271], "type": "Point"}, "properties": {"cty": "Canada", "name": "Botwood", "port": "CABWD", "t": null}, "type": "Feature"}, {"geometry": {"coordinates": [-99.57, 49.5], "type": "Point"}, "properties": {"cty": "Canada", "name": "Brandon", "port": "CABRA", "t": null}, "type": "Feature"}, {"geometry": {"coordinates": [-64.516667, 44.383333], "type": "Point"}, "properties": {"cty": "Canada", "name": "Bridgewater", "port": "CABRW", "t": null}, "type": "Feature"}, {"geometry": {"coordinates": [-111.53, 50.34], "type": "Point"}, "properties": {"cty": "Canada", "name": "Brooks", "port": "CABRK", "t": null}, "type": "Feature"}, {"geometry": {"coordinates": [-57.633333, 47.616667], "type": "Point"}, "properties": {"cty": "Canada", "name": "Burgeo", "port": "CABUO", "t": null}, "type": "Feature"}, {"geometry": {"coordinates": [-55.11, 47.03], "type": "Point"}, "properties": {"cty": "Canada", "name": "Burin", "port": "CABUI", "t": null}, "type": "Feature"}, {"geometry": {"coordinates": [-114.08333, 51.08333], "type": "Point"}, "properties": {"cty": "Canada", "name": "Calgary", "port": "CACAL", "t": 1.0}, "type": "Feature"}, {"geometry": {"coordinates": [-105.05, 69.07], "type": "Point"}, "properties": {"cty": "Canada", "name": "Cambridge Bay", "port": "CACAY", "t": null}, "type": "Feature"}, {"geometry": {"coordinates": [-125.237638, 50.0149], "type": "Point"}, "properties": {"cty": "Canada", "name": "Campbell River", "port": "CACAM", "t": null}, "type": "Feature"}, {"geometry": {"coordinates": [-66.669244, 48.010452], "type": "Point"}, "properties": {"cty": "Canada", "name": "Campbellton", "port": "CACOM", "t": null}, "type": "Feature"}, {"geometry": {"coordinates": [-61.054931, 45.25], "type": "Point"}, "properties": {"cty": "Canada", "name": "Canso", "port": "CACAH", "t": null}, "type": "Feature"}, {"geometry": {"coordinates": [-61.85, 47.383333], "type": "Point"}, "properties": {"cty": "Canada", "name": "Cap-aux-Meules", "port": "CACMS", "t": null}, "type": "Feature"}, {"geometry": {"coordinates": [-64.956677, 47.787084], "type": "Point"}, "properties": {"cty": "Canada", "name": "Caraquet", "port": "CACAQ", "t": null}, "type": "Feature"}, {"geometry": {"coordinates": [-53.212546, 47.744416], "type": "Point"}, "properties": {"cty": "Canada", "name": "Carbonear", "port": "CACRB", "t": null}, "type": "Feature"}, {"geometry": {"coordinates": [-66.131428, 48.106074], "type": "Point"}, "properties": {"cty": "Canada", "name": "Carleton", "port": "CACLT", "t": null}, "type": "Feature"}, {"geometry": {"coordinates": [-54.287266, 49.420551], "type": "Point"}, "properties": {"cty": "Canada", "name": "Carmanville", "port": "CACMV", "t": null}, "type": "Feature"}, {"geometry": {"coordinates": [-53.060861, 48.51969], "type": "Point"}, "properties": {"cty": "Canada", "name": "Catalina", "port": "CACAT", "t": null}, "type": "Feature"}, {"geometry": {"coordinates": [-123.088871, 49.287219], "type": "Point"}, "properties": {"cty": "Canada", "name": "Centerm", "port": "CACXP", "t": 1.0}, "type": "Feature"}, {"geometry": {"coordinates": [-64.666483, 48.347026], "type": "Point"}, "properties": {"cty": "Canada", "name": "Chandler", "port": "CACHR", "t": null}, "type": "Feature"}, {"geometry": {"coordinates": [-63.120783, 46.234759], "type": "Point"}, "properties": {"cty": "Canada", "name": "Charlottetown", "port": "CACHA", "t": null}, "type": "Feature"}, {"geometry": {"coordinates": [-65.466667, 47.033333], "type": "Point"}, "properties": {"cty": "Canada", "name": "Chatham", "port": "CACTM", "t": null}, "type": "Feature"}, {"geometry": {"coordinates": [-123.716667, 48.916667], "type": "Point"}, "properties": {"cty": "Canada", "name": "Chemainus", "port": "CACHM", "t": null}, "type": "Feature"}, {"geometry": {"coordinates": [-71.049813, 48.427602], "type": "Point"}, "properties": {"cty": "Canada", "name": "Chicoutimi", "port": "CACHI", "t": null}, "type": "Feature"}, {"geometry": {"coordinates": [-94.078464, 58.741315], "type": "Point"}, "properties": {"cty": "Canada", "name": "Churchill", "port": "CACHV", "t": null}, "type": "Feature"}, {"geometry": {"coordinates": [-53.962702, 48.166207], "type": "Point"}, "properties": {"cty": "Canada", "name": "Clarenville", "port": "CACLE", "t": null}, "type": "Feature"}, {"geometry": {"coordinates": [-79.633333, 43.5], "type": "Point"}, "properties": {"cty": "Canada", "name": "Clarkson", "port": "CACSN", "t": null}, "type": "Feature"}, {"geometry": {"coordinates": [-78.1, 43.58], "type": "Point"}, "properties": {"cty": "Canada", "name": "Cobourg", "port": "CACBG", "t": null}, "type": "Feature"}, {"geometry": {"coordinates": [-80.230838, 44.49804], "type": "Point"}, "properties": {"cty": "Canada", "name": "Collingwood", "port": "CACOL", "t": null}, "type": "Feature"}, {"geometry": {"coordinates": [-54.044131, 47.8], "type": "Point"}, "properties": {"cty": "Canada", "name": "Come By Chance", "port": "CACBC", "t": null}, "type": "Feature"}, {"geometry": {"coordinates": [-124.926277, 49.675553], "type": "Point"}, "properties": {"cty": "Canada", "name": "Comox", "port": "CACOX", "t": null}, "type": "Feature"}, {"geometry": {"coordinates": [-73.245692, 45.842754], "type": "Point"}, "properties": {"cty": "Canada", "name": "Concord", "port": "CACOC", "t": null}, "type": "Feature"}, {"geometry": {"coordinates": [-57.95, 48.95], "type": "Point"}, "properties": {"cty": "Canada", "name": "Corner Brook", "port": "CACBK", "t": null, "to_cty": ["MX", "BS"]}, "type": "Feature"}, {"geometry": {"coordinates": [-74.72216, 45.026374], "type": "Point"}, "properties": {"cty": "Canada", "name": "Cornwall", "port": "CACWL", "t": null}, "type": "Feature"}, {"geometry": {"coordinates": [-61.683333, 45.133333], "type": "Point"}, "properties": {"cty": "Canada", "name": "Country Harbour", "port": "CACOH", "t": null}, "type": "Feature"}, {"geometry": {"coordinates": [-123.573913, 48.720651], "type": "Point"}, "properties": {"cty": "Canada", "name": "Cowichan Bay", "port": "CACCB", "t": null}, "type": "Feature"}, {"geometry": {"coordinates": [-123.623651, 48.855073], "type": "Point"}, "properties": {"cty": "Canada", "name": "Crofton", "port": "CACRO", "t": 0.0}, "type": "Feature"}, {"geometry": {"coordinates": [-66.3725, 48.069536], "type": "Point"}, "properties": {"cty": "Canada", "name": "Dalhousie", "port": "CADHS", "t": null}, "type": "Feature"}, {"geometry": {"coordinates": [-63.34, 44.4], "type": "Point"}, "properties": {"cty": "Canada", "name": "Dartmouth", "port": "CADHM", "t": null}, "type": "Feature"}, {"geometry": {"coordinates": [-65.766667, 44.633333], "type": "Point"}, "properties": {"cty": "Canada", "name": "Digby", "port": "CADIG", "t": null}, "type": "Feature"}, {"geometry": {"coordinates": [-60.28, 46.54], "type": "Point"}, "properties": {"cty": "Canada", "name": "Dingwall", "port": "CADWL", "t": null}, "type": "Feature"}, {"geometry": {"coordinates": [-79.2, 43.44], "type": "Point"}, "properties": {"cty": "Canada", "name": "Don Mills", "port": "CADON", "t": null}, "type": "Feature"}, {"geometry": {"coordinates": [-125.282595, 50.066926], "type": "Point"}, "properties": {"cty": "Canada", "name": "Duncan Bay", "port": "CADCN", "t": 0.0}, "type": "Feature"}, {"geometry": {"coordinates": [-113.494263, 53.509756], "type": "Point"}, "properties": {"cty": "Canada", "name": "Edmonton", "port": "CAEDM", "t": 0.0}, "type": "Feature"}, {"geometry": {"coordinates": [-123.418909, 48.427602], "type": "Point"}, "properties": {"cty": "Canada", "name": "Esquimalt", "port": "CAESQ", "t": null}, "type": "Feature"}, {"geometry": {"coordinates": [-122.910989, 49.354472], "type": "Point"}, "properties": {"cty": "Canada", "name": "Fraser Port", "port": "CAFRR", "t": 1.0}, "type": "Feature"}, {"geometry": {"coordinates": [-122.911906, 49.185329], "type": "Point"}, "properties": {"cty": "Canada", "name": "Fraser Surrey Docks", "port": "CAFSD", "t": 1.0}, "type": "Feature"}, {"geometry": {"coordinates": [-64.433333, 48.816667], "type": "Point"}, "properties": {"cty": "Canada", "name": "Gaspe", "port": "CAGPE", "t": null}, "type": "Feature"}, {"geometry": {"coordinates": [-62.537615, 46.162342], "type": "Point"}, "properties": {"cty": "Canada", "name": "Georgetown", "port": "CAGGW", "t": 0.0}, "type": "Feature"}, {"geometry": {"coordinates": [-67.60824, 49.323828], "type": "Point"}, "properties": {"cty": "Canada", "name": "Godbout", "port": "CAGBT", "t": null}, "type": "Feature"}, {"geometry": {"coordinates": [-81.706056, 43.750002], "type": "Point"}, "properties": {"cty": "Canada", "name": "Goderich", "port": "CAGOH", "t": null}, "type": "Feature"}, {"geometry": {"coordinates": [-126.116667, 49.683333], "type": "Point"}, "properties": {"cty": "Canada", "name": "Gold River", "port": "CAGOR", "t": null}, "type": "Feature"}, {"geometry": {"coordinates": [-60.355812, 53.366072], "type": "Point"}, "properties": {"cty": "Canada", "name": "Goose Bay", "port": "CAGOO", "t": null}, "type": "Feature"}, {"geometry": {"coordinates": [-55.777466, 47.09439], "type": "Point"}, "properties": {"cty": "Canada", "name": "Grand Bank", "port": "CAGRB", "t": null}, "type": "Feature"}, {"geometry": {"coordinates": [-65.11, 47.48], "type": "Point"}, "properties": {"cty": "Canada", "name": "Grande Anse", "port": "CAGRA", "t": null}, "type": "Feature"}, {"geometry": {"coordinates": [-69.47803, 47.909303], "type": "Point"}, "properties": {"cty": "Canada", "name": "Gros Cacouna", "port": "CAGCA", "t": null}, "type": "Feature"}, {"geometry": {"coordinates": [-63.573878, 44.625816], "type": "Point"}, "properties": {"cty": "Canada", "name": "Halifax", "port": "CAHAL", "t": 1.0, "to_cty": ["US", "BS", "IL", "IT", "BE", "ES", "FR", "AE", "TH", "TR", "VN", "SG", "GB", "DE", "CO", "CN", "IN", "CU", "CW", "MT", "PA", "NL", "AW", "GR", "PT", "CA", "JM", "IS", "MY"]}, "type": "Feature"}, {"geometry": {"coordinates": [-79.9, 43.266667], "type": "Point"}, "properties": {"cty": "Canada", "name": "Hamilton", "port": "CAHAM", "t": null}, "type": "Feature"}, {"geometry": {"coordinates": [-64.17628, 45.066667], "type": "Point"}, "properties": {"cty": "Canada", "name": "Hantsport", "port": "CAHPT", "t": null}, "type": "Feature"}, {"geometry": {"coordinates": [-55.800685, 47.476372], "type": "Point"}, "properties": {"cty": "Canada", "name": "Harbour Breton", "port": "CAHBR", "t": null}, "type": "Feature"}, {"geometry": {"coordinates": [-53.21161, 47.696335], "type": "Point"}, "properties": {"cty": "Canada", "name": "Harbour Grace", "port": "CAHRE", "t": null}, "type": "Feature"}, {"geometry": {"coordinates": [-123.51, 49.08], "type": "Point"}, "properties": {"cty": "Canada", "name": "Harmac", "port": "CAHMC", "t": null}, "type": "Feature"}, {"geometry": {"coordinates": [-63.60412, 50.241239], "type": "Point"}, "properties": {"cty": "Canada", "name": "Havre St.Pierrehavre", "port": "CAHSP", "t": null}, "type": "Feature"}, {"geometry": {"coordinates": [-113.52, 50.34], "type": "Point"}, "properties": {"cty": "Canada", "name": "High River", "port": "CAHIR", "t": null}, "type": "Feature"}, {"geometry": {"coordinates": [-53.116667, 47.383333], "type": "Point"}, "properties": {"cty": "Canada", "name": "Holyrood", "port": "CAHOD", "t": null}, "type": "Feature"}, {"geometry": {"coordinates": [-75.6831, 45.3729], "type": "Point"}, "properties": {"cty": "Canada", "name": "Hull", "port": "CAHUL", "t": 0.0}, "type": "Feature"}, {"geometry": {"coordinates": [-60.813233, 45.961075], "type": "Point"}, "properties": {"cty": "Canada", "name": "Iona", "port": "CAION", "t": null}, "type": "Feature"}, {"geometry": {"coordinates": [-68.531359, 63.733523], "type": "Point"}, "properties": {"cty": "Canada", "name": "Iqaluit", "port": "CAIQL", "t": null}, "type": "Feature"}, {"geometry": {"coordinates": [-76.49588, 44.228052], "type": "Point"}, "properties": {"cty": "Canada", "name": "Kingston", "port": "CAKIN", "t": 0.0}, "type": "Feature"}, {"geometry": {"coordinates": [-82.733333, 42.033333], "type": "Point"}, "properties": {"cty": "Canada", "name": "Kingsville", "port": "CAKVL", "t": null}, "type": "Feature"}, {"geometry": {"coordinates": [-128.713071, 53.959816], "type": "Point"}, "properties": {"cty": "Canada", "name": "Kitimat", "port": "CAKTM", "t": null}, "type": "Feature"}, {"geometry": {"coordinates": [-64.356863, 44.285792], "type": "Point"}, "properties": {"cty": "Canada", "name": "La Have", "port": "CALHA", "t": null}, "type": "Feature"}, {"geometry": {"coordinates": [-55.05, 49.25], "type": "Point"}, "properties": {"cty": "Canada", "name": "Lewisporte", "port": "CALWP", "t": null}, "type": "Feature"}, {"geometry": {"coordinates": [-60.968227, 46.024351], "type": "Point"}, "properties": {"cty": "Canada", "name": "Little Narrows", "port": "CALIN", "t": null}, "type": "Feature"}, {"geometry": {"coordinates": [-64.716667, 44.05], "type": "Point"}, "properties": {"cty": "Canada", "name": "Liverpool", "port": "CALIV", "t": null}, "type": "Feature"}, {"geometry": {"coordinates": [-65.124904, 43.695036], "type": "Point"}, "properties": {"cty": "Canada", "name": "Lockeport", "port": "CALCP", "t": null}, "type": "Feature"}, {"geometry": {"coordinates": [-53.860423, 47.430493], "type": "Point"}, "properties": {"cty": "Canada", "name": "Long Harbour", "port": "CALOH", "t": null}, "type": "Feature"}, {"geometry": {"coordinates": [-52.966667, 47.516667], "type": "Point"}, "properties": {"cty": "Canada", "name": "Long Pond", "port": "CALOP", "t": null}, "type": "Feature"}, {"geometry": {"coordinates": [-59.966667, 45.916667], "type": "Point"}, "properties": {"cty": "Canada", "name": "Louisbourg", "port": "CALOU", "t": null}, "type": "Feature"}, {"geometry": {"coordinates": [-64.316667, 44.383333], "type": "Point"}, "properties": {"cty": "Canada", "name": "Lunenburg", "port": "CALUN", "t": null}, "type": "Feature"}, {"geometry": {"coordinates": [-56.0, 51.166667], "type": "Point"}, "properties": {"cty": "Canada", "name": "Main Brook", "port": "CAMBR", "t": null}, "type": "Feature"}, {"geometry": {"coordinates": [-73.21, 46.22], "type": "Point"}, "properties": {"cty": "Canada", "name": "Mandeville", "port": "CAMVD", "t": null}, "type": "Feature"}, {"geometry": {"coordinates": [-86.383333, 48.733333], "type": "Point"}, "properties": {"cty": "Canada", "name": "Marathon", "port": "CAMAR", "t": null}, "type": "Feature"}, {"geometry": {"coordinates": [-55.15, 47.166667], "type": "Point"}, "properties": {"cty": "Canada", "name": "Marystown", "port": "CAMTN", "t": null}, "type": "Feature"}, {"geometry": {"coordinates": [-66.15, 43.983333], "type": "Point"}, "properties": {"cty": "Canada", "name": "Matane", "port": "CAMNE", "t": null}, "type": "Feature"}, {"geometry": {"coordinates": [-110.4, 50.02], "type": "Point"}, "properties": {"cty": "Canada", "name": "Medicine Hat", "port": "CAMED", "t": null}, "type": "Feature"}, {"geometry": {"coordinates": [-66.117044, 44.229399], "type": "Point"}, "properties": {"cty": "Canada", "name": "Meteghan", "port": "CAMET", "t": null}, "type": "Feature"}, {"geometry": {"coordinates": [-84.883333, 47.966667], "type": "Point"}, "properties": {"cty": "Canada", "name": "Michipicoten Harbour", "port": "CAMIH", "t": null}, "type": "Feature"}, {"geometry": {"coordinates": [-79.880463, 44.753414], "type": "Point"}, "properties": {"cty": "Canada", "name": "Midland", "port": "CAMID", "t": null}, "type": "Feature"}, {"geometry": {"coordinates": [-79.39, 43.35], "type": "Point"}, "properties": {"cty": "Canada", "name": "Mississauga", "port": "CAMIS", "t": null}, "type": "Feature"}, {"geometry": {"coordinates": [-62.38, 46.09], "type": "Point"}, "properties": {"cty": "Canada", "name": "Montague", "port": "CAMON", "t": null}, "type": "Feature"}, {"geometry": {"coordinates": [-73.559285, 45.514196], "type": "Point"}, "properties": {"cty": "Canada", "name": "Montreal", "port": "CAMTR", "t": 1.0, "to_cty": ["BE", "IT", "MX", "GB", "MA", "FR", "ES", "PT", "MT", "DE", "BS", "CA", "NL"]}, "type": "Feature"}, {"geometry": {"coordinates": [-61.388825, 45.58958], "type": "Point"}, "properties": {"cty": "Canada", "name": "Mulgrave", "port": "CAMUL", "t": null}, "type": "Feature"}, {"geometry": {"coordinates": [-123.933332, 49.159484], "type": "Point"}, "properties": {"cty": "Canada", "name": "Nanaimo", "port": "CANNO", "t": 1.0}, "type": "Feature"}, {"geometry": {"coordinates": [-84.55, 73.066667], "type": "Point"}, "properties": {"cty": "Canada", "name": "Nanisivik", "port": "CANVK", "t": null}, "type": "Feature"}, {"geometry": {"coordinates": [-61.85, 50.183333], "type": "Point"}, "properties": {"cty": "Canada", "name": "Natashquan", "port": "CAYNA", "t": null}, "type": "Feature"}, {"geometry": {"coordinates": [-65.55, 47.0], "type": "Point"}, "properties": {"cty": "Canada", "name": "Newcastle", "port": "CANCT", "t": null}, "type": "Feature"}, {"geometry": {"coordinates": [-62.633333, 45.6], "type": "Point"}, "properties": {"cty": "Canada", "name": "New Glasgow", "port": "CANGL", "t": null}, "type": "Feature"}, {"geometry": {"coordinates": [-65.825094, 48.137917], "type": "Point"}, "properties": {"cty": "Canada", "name": "New Richmond", "port": "CANRC", "t": null}, "type": "Feature"}, {"geometry": {"coordinates": [-60.225936, 46.260021], "type": "Point"}, "properties": {"cty": "Canada", "name": "North Sydney", "port": "CANSY", "t": null}, "type": "Feature"}, {"geometry": {"coordinates": [-79.710612, 43.441311], "type": "Point"}, "properties": {"cty": "Canada", "name": "Oakville", "port": "CAOAK", "t": null}, "type": "Feature"}, {"geometry": {"coordinates": [-127.683333, 52.35], "type": "Point"}, "properties": {"cty": "Canada", "name": "Ocean Falls", "port": "CAOFA", "t": null}, "type": "Feature"}, {"geometry": {"coordinates": [-78.833333, 43.866667], "type": "Point"}, "properties": {"cty": "Canada", "name": "Oshawa", "port": "CAOSH", "t": null}, "type": "Feature"}, {"geometry": {"coordinates": [-80.95, 44.583333], "type": "Point"}, "properties": {"cty": "Canada", "name": "Owen Sound", "port": "CAOWS", "t": null}, "type": "Feature"}, {"geometry": {"coordinates": [-64.333333, 45.4], "type": "Point"}, "properties": {"cty": "Canada", "name": "Parrsboro", "port": "CAPAR", "t": null}, "type": "Feature"}, {"geometry": {"coordinates": [-80.047066, 45.406656], "type": "Point"}, "properties": {"cty": "Canada", "name": "Parry Sound", "port": "CAPRS", "t": null}, "type": "Feature"}, {"geometry": {"coordinates": [-65.251372, 48.028606], "type": "Point"}, "properties": {"cty": "Canada", "name": "Paspebiac", "port": "CAPAS", "t": null}, "type": "Feature"}, {"geometry": {"coordinates": [-119.35, 49.3], "type": "Point"}, "properties": {"cty": "Canada", "name": "Penticton", "port": "CAPNT", "t": null}, "type": "Feature"}, {"geometry": {"coordinates": [-62.716667, 45.683333], "type": "Point"}, "properties": {"cty": "Canada", "name": "Pictou", "port": "CAPTO", "t": null}, "type": "Feature"}, {"geometry": {"coordinates": [-70.166294, 47.631475], "type": "Point"}, "properties": {"cty": "Canada", "name": "Pointe-au-Pic", "port": "CAPPC", "t": null}, "type": "Feature"}, {"geometry": {"coordinates": [-66.29, 50.09], "type": "Point"}, "properties": {"cty": "Canada", "name": "Pointe Noire", "port": "CAPNO", "t": null}, "type": "Feature"}, {"geometry": {"coordinates": [-61.22, 45.36], "type": "Point"}, "properties": {"cty": "Canada", "name": "Point Tupper", "port": "CAPTU", "t": null}, "type": "Feature"}, {"geometry": {"coordinates": [-70.879025, 48.328769], "type": "Point"}, "properties": {"cty": "Canada", "name": "Port Alfred", "port": "CAPAF", "t": null}, "type": "Feature"}, {"geometry": {"coordinates": [-127.470782, 50.408695], "type": "Point"}, "properties": {"cty": "Canada", "name": "Port Alice", "port": "CAPAC", "t": null}, "type": "Feature"}, {"geometry": {"coordinates": [-124.840203, 49.240507], "type": "Point"}, "properties": {"cty": "Canada", "name": "Port Aux Barqueport", "port": "CAPAB", "t": null}, "type": "Feature"}, {"geometry": {"coordinates": [-59.116667, 47.566667], "type": "Point"}, "properties": {"cty": "Canada", "name": "Port aux Basques", "port": "CAPBQ", "t": null}, "type": "Feature"}, {"geometry": {"coordinates": [-66.821785, 50.02804], "type": "Point"}, "properties": {"cty": "Canada", "name": "Port Cartier", "port": "CAPCA", "t": null}, "type": "Feature"}, {"geometry": {"coordinates": [-127.492953, 50.763192], "type": "Point"}, "properties": {"cty": "Canada", "name": "Port Hardy", "port": "CAPHY", "t": null}, "type": "Feature"}, {"geometry": {"coordinates": [-61.363922, 45.602738], "type": "Point"}, "properties": {"cty": "Canada", "name": "Port Hawkesbury", "port": "CAPHW", "t": null}, "type": "Feature"}, {"geometry": {"coordinates": [-78.3, 43.966667], "type": "Point"}, "properties": {"cty": "Canada", "name": "Port Hope", "port": "CAOPE", "t": null}, "type": "Feature"}, {"geometry": {"coordinates": [-64.6, 44.116667], "type": "Point"}, "properties": {"cty": "Canada", "name": "Port Medway", "port": "CAPMW", "t": null}, "type": "Feature"}, {"geometry": {"coordinates": [-123.494314, 49.521125], "type": "Point"}, "properties": {"cty": "Canada", "name": "Port Mellon", "port": "CAPML", "t": null}, "type": "Feature"}, {"geometry": {"coordinates": [-71.888643, 46.692105], "type": "Point"}, "properties": {"cty": "Canada", "name": "Portneuf", "port": "CAPTN", "t": null}, "type": "Feature"}, {"geometry": {"coordinates": [-81.270912, 42.695436], "type": "Point"}, "properties": {"cty": "Canada", "name": "Port Stanley", "port": "CAPST", "t": null}, "type": "Feature"}, {"geometry": {"coordinates": [-79.13, 43.13], "type": "Point"}, "properties": {"cty": "Canada", "name": "Port Weller", "port": "CAPWE", "t": null}, "type": "Feature"}, {"geometry": {"coordinates": [-124.523911, 49.846304], "type": "Point"}, "properties": {"cty": "Canada", "name": "Powell River", "port": "CAPOW", "t": null}, "type": "Feature"}, {"geometry": {"coordinates": [-75.516667, 44.716667], "type": "Point"}, "properties": {"cty": "Canada", "name": "Prescott", "port": "CAPRE", "t": null}, "type": "Feature"}, {"geometry": {"coordinates": [-105.45, 53.11], "type": "Point"}, "properties": {"cty": "Canada", "name": "Prince Albert", "port": "CAPRA", "t": null}, "type": "Feature"}, {"geometry": {"coordinates": [-130.372014, 54.262209], "type": "Point"}, "properties": {"cty": "Canada", "name": "Prince Rupert", "port": "CAPRR", "t": 1.0, "to_cty": ["CA", "CN", "KR", "JP", "US"]}, "type": "Feature"}, {"geometry": {"coordinates": [-63.666667, 45.866667], "type": "Point"}, "properties": {"cty": "Canada", "name": "Pugwash", "port": "CAPUG", "t": null}, "type": "Feature"}, {"geometry": {"coordinates": [-71.225695, 46.795499], "type": "Point"}, "properties": {"cty": "Canada", "name": "Quebec", "port": "CAQUE", "t": 0.0}, "type": "Feature"}, {"geometry": {"coordinates": [-93.48, 51.04], "type": "Point"}, "properties": {"cty": "Canada", "name": "Red Lake", "port": "CAREL", "t": null}, "type": "Feature"}, {"geometry": {"coordinates": [-64.866667, 46.683333], "type": "Point"}, "properties": {"cty": "Canada", "name": "Richibucto", "port": "CARBT", "t": null}, "type": "Feature"}, {"geometry": {"coordinates": [-68.538826, 48.429689], "type": "Point"}, "properties": {"cty": "Canada", "name": "Rimouski", "port": "CARIM", "t": null}, "type": "Feature"}, {"geometry": {"coordinates": [-64.2, 44.18], "type": "Point"}, "properties": {"cty": "Canada", "name": "Riverport", "port": "CARIV", "t": null}, "type": "Feature"}, {"geometry": {"coordinates": [-123.078465, 48.992684], "type": "Point"}, "properties": {"cty": "Canada", "name": "Roberts Bank", "port": "CAROB", "t": 0.0}, "type": "Feature"}, {"geometry": {"coordinates": [-71.04, 48.25], "type": "Point"}, "properties": {"cty": "Canada", "name": "Saguenay", "port": "CASAY", "t": null}, "type": "Feature"}, {"geometry": {"coordinates": [-66.05, 45.266667], "type": "Point"}, "properties": {"cty": "Canada", "name": "Saint John", "port": "CASJB", "t": 1.0, "to_cty": ["DE", "CA", "MX", "BS", "BE"]}, "type": "Feature"}, {"geometry": {"coordinates": [-82.403623, 42.972193], "type": "Point"}, "properties": {"cty": "Canada", "name": "Sarnia", "port": "CASNI", "t": null}, "type": "Feature"}, {"geometry": {"coordinates": [-106.66666, 52.13333], "type": "Point"}, "properties": {"cty": "Canada", "name": "Saskatoon", "port": "CASAK", "t": 0.0}, "type": "Feature"}, {"geometry": {"coordinates": [-84.333333, 46.516667], "type": "Point"}, "properties": {"cty": "Canada", "name": "Saulte Ste Marie", "port": "CASSM", "t": null}, "type": "Feature"}, {"geometry": {"coordinates": [-66.361361, 50.202675], "type": "Point"}, "properties": {"cty": "Canada", "name": "Sept-Iles", "port": "CASEI", "t": null}, "type": "Feature"}, {"geometry": {"coordinates": [-64.509989, 46.231952], "type": "Point"}, "properties": {"cty": "Canada", "name": "Shediac", "port": "CASHE", "t": null}, "type": "Feature"}, {"geometry": {"coordinates": [-62.5, 44.833333], "type": "Point"}, "properties": {"cty": "Canada", "name": "Sheet Harbour", "port": "CASHH", "t": null}, "type": "Feature"}, {"geometry": {"coordinates": [-65.336381, 43.740337], "type": "Point"}, "properties": {"cty": "Canada", "name": "Shelburne", "port": "CASBU", "t": 0.0}, "type": "Feature"}, {"geometry": {"coordinates": [-62.0, 45.08], "type": "Point"}, "properties": {"cty": "Canada", "name": "Sherbrooke", "port": "CASKE", "t": null}, "type": "Feature"}, {"geometry": {"coordinates": [-64.734334, 47.753694], "type": "Point"}, "properties": {"cty": "Canada", "name": "Shippegan", "port": "CASHP", "t": null}, "type": "Feature"}, {"geometry": {"coordinates": [-73.116667, 46.033333], "type": "Point"}, "properties": {"cty": "Canada", "name": "Sorel", "port": "CASOR", "t": null}, "type": "Feature"}, {"geometry": {"coordinates": [-62.233333, 46.35], "type": "Point"}, "properties": {"cty": "Canada", "name": "Souris", "port": "CASOU", "t": null}, "type": "Feature"}, {"geometry": {"coordinates": [-82.666667, 46.216667], "type": "Point"}, "properties": {"cty": "Canada", "name": "Spragge", "port": "CASPR", "t": null}, "type": "Feature"}, {"geometry": {"coordinates": [-56.066667, 49.5], "type": "Point"}, "properties": {"cty": "Canada", "name": "Springdale", "port": "CASPD", "t": null}, "type": "Feature"}, {"geometry": {"coordinates": [-123.157859, 49.672001], "type": "Point"}, "properties": {"cty": "Canada", "name": "Squamish", "port": "CASQA", "t": 0.0}, "type": "Feature"}, {"geometry": {"coordinates": [-55.593547, 51.369667], "type": "Point"}, "properties": {"cty": "Canada", "name": "St Anthony", "port": "CASAT", "t": null}, "type": "Feature"}, {"geometry": {"coordinates": [-58.525, 48.529644], "type": "Point"}, "properties": {"cty": "Canada", "name": "Stephenville", "port": "CASTV", "t": null}, "type": "Feature"}, {"geometry": {"coordinates": [-130.016325, 55.90809], "type": "Point"}, "properties": {"cty": "Canada", "name": "Stewart", "port": "CASTW", "t": null}, "type": "Feature"}, {"geometry": {"coordinates": [-66.05, 45.266667], "type": "Point"}, "properties": {"cty": "Canada", "name": "St. John", "port": "CASJN", "t": 0.0}, "type": "Feature"}, {"geometry": {"coordinates": [-66.05, 45.266667], "type": "Point"}, "properties": {"cty": "Canada", "name": "St John's", "port": "CASJF", "t": 1.0}, "type": "Feature"}, {"geometry": {"coordinates": [-72.388763, 46.420537], "type": "Point"}, "properties": {"cty": "Canada", "name": "St. Lawrence", "port": "CASLA", "t": null}, "type": "Feature"}, {"geometry": {"coordinates": [-71.237266, 46.754644], "type": "Point"}, "properties": {"cty": "Canada", "name": "St Romuald", "port": "CASRO", "t": null}, "type": "Feature"}, {"geometry": {"coordinates": [-63.782649, 46.389491], "type": "Point"}, "properties": {"cty": "Canada", "name": "Summerside", "port": "CASUM", "t": null}, "type": "Feature"}, {"geometry": {"coordinates": [-60.189013, 46.167123], "type": "Point"}, "properties": {"cty": "Canada", "name": "Sydney", "port": "CASYD", "t": null}, "type": "Feature"}, {"geometry": {"coordinates": [-126.666667, 49.916667], "type": "Point"}, "properties": {"cty": "Canada", "name": "Tahsis", "port": "CAPTA", "t": null}, "type": "Feature"}, {"geometry": {"coordinates": [-124.547256, 49.706217], "type": "Point"}, "properties": {"cty": "Canada", "name": "Texada Island", "port": "CATEX", "t": null}, "type": "Feature"}, {"geometry": {"coordinates": [-89.233333, 48.45], "type": "Point"}, "properties": {"cty": "Canada", "name": "Thunder Bay", "port": "CATHU", "t": null}, "type": "Feature"}, {"geometry": {"coordinates": [-80.43, 42.51], "type": "Point"}, "properties": {"cty": "Canada", "name": "Tillsonburg", "port": "CATSB", "t": null}, "type": "Feature"}, {"geometry": {"coordinates": [-79.365234, 43.681004], "type": "Point"}, "properties": {"cty": "Canada", "name": "Toronto", "port": "CATOR", "t": 1.0}, "type": "Feature"}, {"geometry": {"coordinates": [-62.37, 45.37], "type": "Point"}, "properties": {"cty": "Canada", "name": "Trenton", "port": "CATTC", "t": null}, "type": "Feature"}, {"geometry": {"coordinates": [-72.554306, 46.32875], "type": "Point"}, "properties": {"cty": "Canada", "name": "Trois-Rivieres", "port": "CATRR", "t": 0.0}, "type": "Feature"}, {"geometry": {"coordinates": [-133.033333, 69.45], "type": "Point"}, "properties": {"cty": "Canada", "name": "Tuktoyaktuk", "port": "CATUK", "t": null}, "type": "Feature"}, {"geometry": {"coordinates": [-54.75, 49.666667], "type": "Point"}, "properties": {"cty": "Canada", "name": "Twillingate", "port": "CATWI", "t": null}, "type": "Feature"}, {"geometry": {"coordinates": [-74.143758, 45.206992], "type": "Point"}, "properties": {"cty": "Canada", "name": "Valleyfield", "port": "CAVLF", "t": null}, "type": "Feature"}, {"geometry": {"coordinates": [-123.148843, 49.308215], "type": "Point"}, "properties": {"cty": "Canada", "name": "Vancouver", "port": "CAVAN", "t": 1.0, "to_cty": ["US", "KR", "MX", "CN", "JP", "SG", "VN", "TW", "TH", "HK", "NZ"]}, "type": "Feature"}, {"geometry": {"coordinates": [-123.094446, 49.287917], "type": "Point"}, "properties": {"cty": "Canada", "name": "Vancouver Centerm Terminal", "port": "CAVAN", "t": 1.0, "to_cty": ["US", "KR", "MX", "CN", "JP", "SG", "VN", "TW", "TH", "HK", "NZ"]}, "type": "Feature"}, {"geometry": {"coordinates": [-123.370196, 48.425153], "type": "Point"}, "properties": {"cty": "Canada", "name": "Victoria", "port": "CAVIC", "t": null}, "type": "Feature"}, {"geometry": {"coordinates": [-66.52, 52.55], "type": "Point"}, "properties": {"cty": "Canada", "name": "Wabush", "port": "CAWAU", "t": null}, "type": "Feature"}, {"geometry": {"coordinates": [-130.18, 54.14], "type": "Point"}, "properties": {"cty": "Canada", "name": "Watson Island", "port": "CAWAT", "t": null}, "type": "Feature"}, {"geometry": {"coordinates": [-79.140137, 43.184525], "type": "Point"}, "properties": {"cty": "Canada", "name": "Welland", "port": "CAWEL", "t": null}, "type": "Feature"}, {"geometry": {"coordinates": [-66.0, 44.45], "type": "Point"}, "properties": {"cty": "Canada", "name": "Weymouth", "port": "CAWEY", "t": null}, "type": "Feature"}, {"geometry": {"coordinates": [-82.27, 42.06], "type": "Point"}, "properties": {"cty": "Canada", "name": "Wheatley", "port": "CAWHL", "t": null}, "type": "Feature"}, {"geometry": {"coordinates": [-75.21, 45.05], "type": "Point"}, "properties": {"cty": "Canada", "name": "Winchester", "port": "CAWIC", "t": null}, "type": "Feature"}, {"geometry": {"coordinates": [-83.039201, 42.316667], "type": "Point"}, "properties": {"cty": "Canada", "name": "Windsor", "port": "CAWND", "t": null}, "type": "Feature"}, {"geometry": {"coordinates": [-96.924971, 50.313219], "type": "Point"}, "properties": {"cty": "Canada", "name": "Winnipeg", "port": "CAWNP", "t": 0.0}, "type": "Feature"}, {"geometry": {"coordinates": [-123.25, 49.666667], "type": "Point"}, "properties": {"cty": "Canada", "name": "Woodfibre", "port": "CAWOO", "t": null}, "type": "Feature"}, {"geometry": {"coordinates": [-66.116667, 43.833333], "type": "Point"}, "properties": {"cty": "Canada", "name": "Yarmouth", "port": "CAYRH", "t": null}, "type": "Feature"}, {"geometry": {"coordinates": [-24.997415, 16.89093], "type": "Point"}, "properties": {"cty": "Cape_verde", "name": "Porto Grande", "port": "CVPGR", "t": 1.0}, "type": "Feature"}, {"geometry": {"coordinates": [-23.516667, 14.918579], "type": "Point"}, "properties": {"cty": "Cape_verde", "name": "Porto Praia", "port": "CVRAI", "t": 1.0, "to_cty": ["CV", "NL", "ES", "PT"]}, "type": "Feature"}, {"geometry": {"coordinates": [-81.383333, 19.3], "type": "Point"}, "properties": {"cty": "Cayman_islands", "name": "Georgetown", "port": "KYGEC", "t": 1.0}, "type": "Feature"}, {"geometry": {"coordinates": [-73.5, -41.51], "type": "Point"}, "properties": {"cty": "Chile", "name": "Ancud", "port": "CLZUD", "t": null}, "type": "Feature"}, {"geometry": {"coordinates": [-70.397644, -23.657006], "type": "Point"}, "properties": {"cty": "Chile", "name": "Antofagasta", "port": "CLANF", "t": 1.0, "to_cty": ["BR", "CL"]}, "type": "Feature"}, {"geometry": {"coordinates": [-70.317993, -18.490345], "type": "Point"}, "properties": {"cty": "Chile", "name": "Arica", "port": "CLARI", "t": 1.0, "to_cty": ["BR", "CL", "PE"]}, "type": "Feature"}, {"geometry": {"coordinates": [-71.41, -45.54], "type": "Point"}, "properties": {"cty": "Chile", "name": "Balmaceda", "port": "CLBAL", "t": null}, "type": "Feature"}, {"geometry": {"coordinates": [-70.635583, -26.305073], "type": "Point"}, "properties": {"cty": "Chile", "name": "Barquito", "port": "CLBAR", "t": null}, "type": "Feature"}, {"geometry": {"coordinates": [-70.51, -52.58], "type": "Point"}, "properties": {"cty": "Chile", "name": "Cabo Negro", "port": "CLCNX", "t": null}, "type": "Feature"}, {"geometry": {"coordinates": [-70.836643, -27.063453], "type": "Point"}, "properties": {"cty": "Chile", "name": "Caldera", "port": "CLCLD", "t": 0.0}, "type": "Feature"}, {"geometry": {"coordinates": [-70.51, -27.05], "type": "Point"}, "properties": {"cty": "Chile", "name": "Calderilla", "port": "CLCLA", "t": null}, "type": "Feature"}, {"geometry": {"coordinates": [-70.624921, -26.352543], "type": "Point"}, "properties": {"cty": "Chile", "name": "Caleta Barquito", "port": "CLCBO", "t": 0.0}, "type": "Feature"}, {"geometry": {"coordinates": [-70.451557, -23.763826], "type": "Point"}, "properties": {"cty": "Chile", "name": "Caleta Coloso", "port": "CLCOL", "t": null}, "type": "Feature"}, {"geometry": {"coordinates": [-70.12, -20.45], "type": "Point"}, "properties": {"cty": "Chile", "name": "Caleta Patillos", "port": "CLCPS", "t": null}, "type": "Feature"}, {"geometry": {"coordinates": [-73.733709, -42.332911], "type": "Point"}, "properties": {"cty": "Chile", "name": "Castro", "port": "CLWCA", "t": null}, "type": "Feature"}, {"geometry": {"coordinates": [-72.49, -45.29], "type": "Point"}, "properties": {"cty": "Chile", "name": "Chacabuco", "port": "CLCHB", "t": null, "to_cty": ["CL"]}, "type": "Feature"}, {"geometry": {"coordinates": [-71.344509, -29.95], "type": "Point"}, "properties": {"cty": "Chile", "name": "Coquimbo", "port": "CLCQQ", "t": 0.0}, "type": "Feature"}, {"geometry": {"coordinates": [-73.14744, -37.013598], "type": "Point"}, "properties": {"cty": "Chile", "name": "Coronel", "port": "CLCNL", "t": 1.0, "to_cty": ["CN", "KR", "HK", "TW", "BE", "MX", "JP", "PA", "PE", "PT", "CL", "DO"]}, "type": "Feature"}, {"geometry": {"coordinates": [-73.26, -39.52], "type": "Point"}, "properties": {"cty": "Chile", "name": "Corral", "port": "CLCRR", "t": null}, "type": "Feature"}, {"geometry": {"coordinates": [-71.331962, -29.397445], "type": "Point"}, "properties": {"cty": "Chile", "name": "Cruz Grande", "port": "CLCGR", "t": null}, "type": "Feature"}, {"geometry": {"coordinates": [-109.31139, -27.081078], "type": "Point"}, "properties": {"cty": "Chile", "name": "Easter Island", "port": "CLEAI", "t": 0.0}, "type": "Feature"}, {"geometry": {"coordinates": [-71.370784, -29.992836], "type": "Point"}, "properties": {"cty": "Chile", "name": "Guayacan", "port": "CLGYC", "t": null}, "type": "Feature"}, {"geometry": {"coordinates": [-71.247438, -28.482126], "type": "Point"}, "properties": {"cty": "Chile", "name": "Huasco", "port": "CLHSO", "t": null}, "type": "Feature"}, {"geometry": {"coordinates": [-70.144957, -20.223949], "type": "Point"}, "properties": {"cty": "Chile", "name": "Iquique", "port": "CLIQQ", "t": 1.0, "to_cty": ["CL", "PE", "KR", "PA"]}, "type": "Feature"}, {"geometry": {"coordinates": [-109.43558, -27.155651], "type": "Point"}, "properties": {"cty": "Chile", "name": "Isla de Pascua", "port": "CLIPC", "t": null}, "type": "Feature"}, {"geometry": {"coordinates": [-74.564287, -50.18849], "type": "Point"}, "properties": {"cty": "Chile", "name": "Isla Guarello", "port": "CLISG", "t": null}, "type": "Feature"}, {"geometry": {"coordinates": [-71.14, -29.53], "type": "Point"}, "properties": {"cty": "Chile", "name": "La Serena", "port": "CLLSE", "t": null}, "type": "Feature"}, {"geometry": {"coordinates": [-72.962949, -36.694498], "type": "Point"}, "properties": {"cty": "Chile", "name": "Lirquen", "port": "CLLQN", "t": 1.0, "to_cty": ["PE", "MX", "CL", "CN", "HK", "JP", "KR"]}, "type": "Feature"}, {"geometry": {"coordinates": [-73.139202, -37.121904], "type": "Point"}, "properties": {"cty": "Chile", "name": "Lota", "port": "CLLTA", "t": null}, "type": "Feature"}, {"geometry": {"coordinates": [-70.438846, -23.103786], "type": "Point"}, "properties": {"cty": "Chile", "name": "Mejillones", "port": "CLMJS", "t": 0.0, "to_cty": ["CN", "CL", "HK", "KR", "JP"]}, "type": "Feature"}, {"geometry": {"coordinates": [-70.183333, -20.683333], "type": "Point"}, "properties": {"cty": "Chile", "name": "Patillos Cove", "port": "CLPTI", "t": null}, "type": "Feature"}, {"geometry": {"coordinates": [-72.59, -36.43], "type": "Point"}, "properties": {"cty": "Chile", "name": "Penco", "port": "CLPEO", "t": null}, "type": "Feature"}, {"geometry": {"coordinates": [-67.616667, -54.933333], "type": "Point"}, "properties": {"cty": "Chile", "name": "Port Williams", "port": "CLWPU", "t": null}, "type": "Feature"}, {"geometry": {"coordinates": [-70.389694, -23.06618], "type": "Point"}, "properties": {"cty": "Chile", "name": "Puerto Angamos", "port": "CLPAG", "t": 1.0, "to_cty": ["PE", "JP", "MX", "CL", "KR", "CN", "HK"]}, "type": "Feature"}, {"geometry": {"coordinates": [-73.287049, -45.405926], "type": "Point"}, "properties": {"cty": "Chile", "name": "Puerto Chacabuco", "port": "CLPCH", "t": 1.0, "to_cty": ["CL"]}, "type": "Feature"}, {"geometry": {"coordinates": [-72.942486, -41.466966], "type": "Point"}, "properties": {"cty": "Chile", "name": "Puerto Montt", "port": "CLPMC", "t": 1.0}, "type": "Feature"}, {"geometry": {"coordinates": [-72.439183, -51.75971], "type": "Point"}, "properties": {"cty": "Chile", "name": "Puerto Natales", "port": "CLPNT", "t": 1.0}, "type": "Feature"}, {"geometry": {"coordinates": [-71.527653, -32.801304], "type": "Point"}, "properties": {"cty": "Chile", "name": "Puerto Ventanas", "port": "CLLV0", "t": null}, "type": "Feature"}, {"geometry": {"coordinates": [-70.941289, -53.101753], "type": "Point"}, "properties": {"cty": "Chile", "name": "Punta Arenas", "port": "CLPUQ", "t": 1.0, "to_cty": ["CL"]}, "type": "Feature"}, {"geometry": {"coordinates": [-70.182038, -20.802724], "type": "Point"}, "properties": {"cty": "Chile", "name": "Punta Patache", "port": "CLPX0", "t": 0.0}, "type": "Feature"}, {"geometry": {"coordinates": [-73.666295, -43.020356], "type": "Point"}, "properties": {"cty": "Chile", "name": "Quellon", "port": "CLPTE", "t": null}, "type": "Feature"}, {"geometry": {"coordinates": [-73.521597, -42.092957], "type": "Point"}, "properties": {"cty": "Chile", "name": "Quemchi", "port": "CLQMC", "t": null}, "type": "Feature"}, {"geometry": {"coordinates": [-71.491945, -32.729706], "type": "Point"}, "properties": {"cty": "Chile", "name": "Quintero", "port": "CLQTV", "t": null}, "type": "Feature"}, {"geometry": {"coordinates": [-71.608612, -33.567316], "type": "Point"}, "properties": {"cty": "Chile", "name": "San Antonio", "port": "CLSAI", "t": 1.0, "to_cty": ["EC", "PE", "JP", "PA", "CL", "HK", "BR", "CN", "MX", "CO", "KR", "DO", "BE", "NL", "GB", "DE", "FR", "PT"]}, "type": "Feature"}, {"geometry": {"coordinates": [-73.133333, -36.716667], "type": "Point"}, "properties": {"cty": "Chile", "name": "San Vicente", "port": "CLSVE", "t": 1.0, "to_cty": ["BR", "CN", "PE", "TW", "KR", "HK", "CL", "PA"]}, "type": "Feature"}, {"geometry": {"coordinates": [-73.105774, -36.68571], "type": "Point"}, "properties": {"cty": "Chile", "name": "Talcahuano", "port": "CLTAL", "t": 0.0}, "type": "Feature"}, {"geometry": {"coordinates": [-70.472348, -25.401241], "type": "Point"}, "properties": {"cty": "Chile", "name": "Taltal", "port": "CLTTC", "t": null}, "type": "Feature"}, {"geometry": {"coordinates": [-70.202637, -22.106246], "type": "Point"}, "properties": {"cty": "Chile", "name": "Tocopilla", "port": "CLTOQ", "t": 0.0}, "type": "Feature"}, {"geometry": {"coordinates": [-73.337893, -39.790537], "type": "Point"}, "properties": {"cty": "Chile", "name": "Valdivia", "port": "CLZAL", "t": null}, "type": "Feature"}, {"geometry": {"coordinates": [-71.639102, -33.050377], "type": "Point"}, "properties": {"cty": "Chile", "name": "Valparaiso", "port": "CLVAP", "t": 1.0, "to_cty": ["CN", "DE", "HK", "CL", "KR", "PA", "TW", "NL", "PE", "DO", "BE"]}, "type": "Feature"}, {"geometry": {"coordinates": [117.036671, 30.50148], "type": "Point"}, "properties": {"cty": "China", "name": "Anqing", "port": "CNAQG", "t": 0.0, "to_cty": ["CN"]}, "type": "Feature"}, {"geometry": {"coordinates": [123.0, 41.07], "type": "Point"}, "properties": {"cty": "China", "name": "Anshan", "port": "CNASN", "t": null}, "type": "Feature"}, {"geometry": {"coordinates": [115.016492, 30.397187], "type": "Point"}, "properties": {"cty": "China", "name": "Bahe", "port": "CNBAH", "t": 0.0}, "type": "Feature"}, {"geometry": {"coordinates": [109.13, 19.42], "type": "Point"}, "properties": {"cty": "China", "name": "Baimajing", "port": "CNBMJ", "t": null}, "type": "Feature"}, {"geometry": {"coordinates": [109.49, 40.39], "type": "Point"}, "properties": {"cty": "China", "name": "Baotou", "port": "CNBAT", "t": null}, "type": "Feature"}, {"geometry": {"coordinates": [108.635894, 19.087023], "type": "Point"}, "properties": {"cty": "China", "name": "Basou", "port": "CNBAS", "t": 1.0}, "type": "Feature"}, {"geometry": {"coordinates": [122.244854, 40.686197], "type": "Point"}, "properties": {"cty": "China", "name": "Bayuquan", "port": "CNBAY", "t": 1.0}, "type": "Feature"}, {"geometry": {"coordinates": [113.169138, 22.894374], "type": "Point"}, "properties": {"cty": "China", "name": "Beijiao", "port": "CNYQS", "t": 1.0}, "type": "Feature"}, {"geometry": {"coordinates": [117.366667, 32.916667], "type": "Point"}, "properties": {"cty": "China", "name": "Bengbu", "port": "CNBFU", "t": 0.0}, "type": "Feature"}, {"geometry": {"coordinates": [114.086, 22.6642], "type": "Point"}, "properties": {"cty": "China", "name": "Buji", "port": "CNBUJ", "t": 0.0}, "type": "Feature"}, {"geometry": {"coordinates": [118.52125, 39.018295], "type": "Point"}, "properties": {"cty": "China", "name": "Caofeidian Pt ", "port": "CNCFD", "t": 0.0}, "type": "Feature"}, {"geometry": {"coordinates": [111.683333, 29.033333], "type": "Point"}, "properties": {"cty": "China", "name": "Changde", "port": "CNCDE", "t": 0.0}, "type": "Feature"}, {"geometry": {"coordinates": [112.969662, 28.188785], "type": "Point"}, "properties": {"cty": "China", "name": "Changsha", "port": "CNCSX", "t": 0.0}, "type": "Feature"}, {"geometry": {"coordinates": [120.95261, 31.762958], "type": "Point"}, "properties": {"cty": "China", "name": "Changshu", "port": "CNCGU", "t": 0.0, "to_cty": ["CN"]}, "type": "Feature"}, {"geometry": {"coordinates": [113.08, 36.11], "type": "Point"}, "properties": {"cty": "China", "name": "Changzhi", "port": "CNCIH", "t": null}, "type": "Feature"}, {"geometry": {"coordinates": [119.982381, 31.964527], "type": "Point"}, "properties": {"cty": "China", "name": "Changzhou", "port": "CNCZX", "t": 1.0, "to_cty": ["CN"]}, "type": "Feature"}, {"geometry": {"coordinates": [104.04, 30.4], "type": "Point"}, "properties": {"cty": "China", "name": "Chengdu", "port": "CNCTU", "t": 0.0}, "type": "Feature"}, {"geometry": {"coordinates": [113.148538, 29.430199], "type": "Point"}, "properties": {"cty": "China", "name": "Chenglingji", "port": "CNCLJ", "t": 0.0}, "type": "Feature"}, {"geometry": {"coordinates": [113.875011, 22.478559], "type": "Point"}, "properties": {"cty": "China", "name": "Chiwan", "port": "CNCWN", "t": 1.0}, "type": "Feature"}, {"geometry": {"coordinates": [121.378868, 31.627778], "type": "Point"}, "properties": {"cty": "China", "name": "Chongming", "port": "CNCMG", "t": 0.0}, "type": "Feature"}, {"geometry": {"coordinates": [106.538705, 29.529278], "type": "Point"}, "properties": {"cty": "China", "name": "Chongqing", "port": "CNCKG", "t": 0.0}, "type": "Feature"}, {"geometry": {"coordinates": [121.741196, 31.239929], "type": "Point"}, "properties": {"cty": "China", "name": "Chuansha", "port": "CNCHU", "t": 0.0}, "type": "Feature"}, {"geometry": {"coordinates": [113.52, 22.32], "type": "Point"}, "properties": {"cty": "China", "name": "Da Chan Bay", "port": "CNDCB", "t": 1.0, "to_cty": ["CN", "IN", "MY", "LK", "AE", "ID", "OM", "US", "HK", "IL", "KR", "FR", "SG", "TR", "DE", "VN"]}, "type": "Feature"}, {"geometry": {"coordinates": [120.834, 33.3075], "type": "Point"}, "properties": {"cty": "China", "name": "Dafeng", "port": "CNDFE", "t": 0.0}, "type": "Feature"}, {"geometry": {"coordinates": [113.24, 22.48], "type": "Point"}, "properties": {"cty": "China", "name": "Dagang", "port": "CNDAA", "t": 0.0}, "type": "Feature"}, {"geometry": {"coordinates": [121.65, 38.916667], "type": "Point"}, "properties": {"cty": "China", "name": "Dalian", "port": "CNDLC", "t": 1.0, "to_cty": ["CN", "IL", "KR", "HK", "SG", "MY", "TW", "IT", "EG", "TH", "ID", "VN"]}, "type": "Feature"}, {"geometry": {"coordinates": [124.383333, 40.033333], "type": "Point"}, "properties": {"cty": "China", "name": "Dandong", "port": "CNDDG", "t": 1.0}, "type": "Feature"}, {"geometry": {"coordinates": [125.01, 46.36], "type": "Point"}, "properties": {"cty": "China", "name": "Daqing", "port": "CNDQG", "t": 1.0}, "type": "Feature"}, {"geometry": {"coordinates": [120.04, 30.32], "type": "Point"}, "properties": {"cty": "China", "name": "Deqing", "port": "CNDEI", "t": 0.0}, "type": "Feature"}, {"geometry": {"coordinates": [116.17, 37.26], "type": "Point"}, "properties": {"cty": "China", "name": "Dezhou", "port": "CNDZU", "t": null}, "type": "Feature"}, {"geometry": {"coordinates": [111.296997, 21.48319], "type": "Point"}, "properties": {"cty": "China", "name": "Dianbai", "port": "CNAKL", "t": 0.0}, "type": "Feature"},